id,type,name,latitude_deg,longitude_deg,elevation_ft,iso_country,municipality,scheduled_service,iata_code,local_code
12243,medium_airport,Aleknagik / New Airport,59.2826004028,-158.617996216,66,US,Aleknagik,yes,WKK,5A8
3,large_airport,Honiara International Airport,-9.428,160.054993,28,SB,Honiara,yes,HIR,
4,medium_airport,Munda Airport,-8.32797,157.263,10,SB,Munda,yes,MUA,
312371,medium_airport,Hongyuan Airport,32.53154,102.35224,11600,CN,Aba,no,AHJ,
8,medium_airport,Nauru International Airport,-0.547458,166.919006,22,NR,Yaren District,yes,INU,
314558,medium_airport,Alxa Left Banner Bayanhot Airport,38.74831,105.58858,4560,CN,Bayanhot,yes,AXF,
53,medium_airport,Buka Airport,-5.4223198890686,154.673004150391,11,PG,Buka Island,yes,BUA,
54,medium_airport,Chimbu Airport,-6.02429008483887,144.970993041992,4974,PG,Kundiawa,yes,CMU,
55,medium_airport,Daru Airport,-9.08675956726,143.207992554,20,PG,Daru,yes,DAU,
56,medium_airport,Goroka Airport,-6.08168983459,145.391998291,5282,PG,Goronka,yes,GKA,
57,medium_airport,Gurney Airport,-10.3114995956,150.333999634,88,PG,Gurney,yes,GUR,
58,medium_airport,Girua Airport,-8.80453968048,148.309005737,311,PG,Popondetta,yes,PNP,
59,medium_airport,Kimbe Airport,-5.46217012405396,150.404998779297,66,PG,Hoskins,yes,HKN,
60,medium_airport,Kerema Airport,-7.96361017227,145.770996094,10,PG,Kerema,yes,KMA,
61,medium_airport,Kavieng Airport,-2.57940006256,150.807998657,7,PG,Kavieng,yes,KVG,
62,medium_airport,Madang Airport,-5.20707988739,145.789001465,20,PG,Madang,yes,MAG,
63,medium_airport,Mount Hagen Kagamuga Airport,-5.82678985595703,144.296005249023,5388,PG,Mount Hagen,yes,HGU,
64,medium_airport,Mendi Airport,-6.14774,143.656998,5680,PG,Mendi,yes,MDU,
65,medium_airport,Momote Airport,-2.06189,147.423996,12,PG,Manus Island,yes,MAS,
66,medium_airport,Nadzab Airport,-6.569803,146.725977,239,PG,Lae,yes,LAE,
67,large_airport,Port Moresby Jacksons International Airport,-9.44338035583496,147.220001220703,146,PG,Port Moresby,yes,POM,
68,medium_airport,Tokua Airport,-4.34046,152.380005,49,PG,Kokopo,yes,RAB,
69,medium_airport,Vanimo Airport,-2.6926,141.3028,10,PG,Vanimo,yes,VAI,
70,medium_airport,Wapenamanda Airport,-5.6433,143.895004,5889,PG,Wapenamanda,yes,WBM,
71,medium_airport,Wewak International Airport,-3.58383011818,143.669006348,19,PG,Wewak,yes,WWK,
44941,medium_airport,Zabrat Airport,40.4955422161,49.9768066406,36,AZ,Baku,no,ZXT,
27301,medium_airport,Benguera Island Airport,-21.8533000946045,35.4383010864258,,MZ,Benguera Island,yes,BCW,
111,medium_airport,Bezmer Air Base,42.4548988342,26.3521995544,509,BG,Yambol,no,JAM,
31697,medium_airport,Aasiaat Airport,68.7218017578,-52.7846984863,74,GL,Aasiaat,yes,JEG,
113,medium_airport,Narsarsuaq Airport,61.1604995728,-45.4259986877,112,GL,Narsarsuaq,yes,UAK,
114,medium_airport,Godthaab / Nuuk Airport,64.19090271,-51.6781005859,283,GL,Nuuk,yes,GOH,
115,medium_airport,Kangerlussuaq Airport,67.0122218992,-50.7116031647,165,GL,Kangerlussuaq,yes,SFJ,
31700,medium_airport,Sisimiut Airport,66.951302,-53.729301,33,GL,Sisimiut,yes,JHS,
116,medium_airport,Thule Air Base,76.5311965942,-68.7032012939,251,GL,Thule,yes,THU,
117,medium_airport,Akureyri Airport,65.6600036621094,-18.0727005004883,6,IS,Akureyri,yes,AEY,
119,medium_airport,Egilsstaðir Airport,65.2833023071289,-14.4013996124268,76,IS,Egilsstaðir,yes,EGS,
120,medium_airport,Hornafjörður Airport,64.295601,-15.2272,24,IS,Höfn,yes,HFN,
121,medium_airport,Húsavík Airport,65.952301,-17.426001,48,IS,Húsavík,yes,HZK,
122,medium_airport,Ísafjörður Airport,66.0580978393555,-23.1352996826172,8,IS,Ísafjörður,yes,IFJ,
123,large_airport,Keflavik International Airport,63.985001,-22.6056,171,IS,Reykjavík,yes,KEF,
125,medium_airport,Reykjavik Airport,64.1299972534,-21.9405994415,48,IS,Reykjavik,yes,RKV,
126,medium_airport,Siglufjörður Airport,66.137847,-18.908157,10,IS,Siglufjörður,no,SIJ,
128,medium_airport,Vestmannaeyjar Airport,63.4243011474609,-20.2789001464844,326,IS,Vestmannaeyjar,no,VEY,
4614,large_airport,Priština Adem Jashari International Airport,42.5728,21.035801,1789,XK,Prishtina,yes,PRN,
333222,medium_airport,Glauber de Andrade Rocha Airport,-14.907885,-40.914804,2940,BR,Vitória da Conquista,yes,VDC,BA0005
42216,medium_airport,Big Creek Airport,16.519369,-88.407913,22,BZ,Big Creek,yes,BGK,
30861,medium_airport,Caye Caulker Airport,17.734699,-88.032501,2,BZ,Caye Caulker,yes,CUK,
30867,medium_airport,Caye Chapel Airport,17.683792,-88.044985,3,BZ,Caye Chapel,yes,CYC,
42209,medium_airport,Corozal Municipal Airport,18.3822002410889,-88.4119033813477,40,BZ,Corozal,yes,CZH,
42207,medium_airport,Dangriga Airport,16.9825096130371,-88.2309875488281,508,BZ,Dangriga,yes,DGA,
42217,medium_airport,Placencia Airport,16.5369567871094,-88.3615112304688,3,BZ,Placencia,yes,PLJ,
35305,medium_airport,Punta Gorda Airport,16.102399826,-88.8082962036,7,BZ,Punta Gorda,yes,PND,
42210,medium_airport,Sartaneja Airport,18.3561000823975,-88.1307983398438,3,BZ,Sartaneja,yes,SJX,
32370,medium_airport,John Greif II Airport,17.9139,-87.9711,4,BZ,San Pedro,yes,SPR,
42215,medium_airport,Sir Barry Bowen Municipal Airport,17.51639,-88.194443,8,BZ,Belize City,yes,TZA,
27300,medium_airport,Bazaruto Island Airport,-21.5411,35.4729,,MZ,Bazaruto Island,no,BZB,
44127,medium_airport,Yuanmou Air Base,25.737499237061,101.88200378418,3810,CN,Yuanmou,no,YUA,
44100,medium_airport,Zhangjiakou Ningyuan Airport,40.7386016846,114.930000305,2347,CN,Zhangjiakou,yes,ZQZ,
44103,medium_airport,Baoshan Yunduan Airport,25.053301,99.168297,5453,CN,Baoshan,yes,BSD,
44116,medium_airport,Lintsang Airfield,23.7381000519,100.025001526,6230,CN,Lincang,yes,LNJ,
44122,medium_airport,Shigatse Air Base,29.3519,89.311401,3782,CN,Xigazê,yes,RKZ,
44126,medium_airport,Bao'anying Airport,26.54,101.79852,1620,CN,Panzhihua,yes,PZI,
44139,medium_airport,Foshan Shadi Airport,23.0833,113.07,6,CN,Foshan (Nanhai),yes,FUO,
323907,medium_airport,Xinyang Minggang Airport,32.540819,114.079141,312,CN,Xinyang,yes,XAI,
44146,medium_airport,Huizhou Pingtan Airport,23.049999,114.599998,50,CN,Huizhou (Pingtan),yes,HUZ,
44157,medium_airport,Shaoguan Guitou Airport,24.9786,113.420998,280,CN,Ruyuan Yao Autonomous County (Shaoguan),no,HSC,
44159,medium_airport,Jinggangshan Airport,26.8568992615,114.736999512,281,CN,Ji'an,yes,JGS,
44160,medium_airport,Baise Youjiang Airport,23.7206,106.959999,490,CN,Baise (Tianyang),yes,AEB,
44169,medium_airport,Dongying Shengli Airport,37.5085983276,118.788002014,15,CN,Dongying,no,DOY,
44182,medium_airport,Xingcheng Air Base,40.580328,120.700374,30,CN,"Xingcheng, Huludao",no,XEN,
44191,medium_airport,Altay Airport,47.749886,88.085808,2460,CN,Altay,yes,AAT,
44208,medium_airport,Tianshui Maijishan Airport,34.559399,105.860001,3590,CN,Tianshui,yes,THQ,
44221,medium_airport,Zhangye Ganzhou Airport,38.8018989563,100.675003052,5280,CN,Zhangye,yes,YZY,
44267,medium_airport,Dandong Langtou Airport,40.0247,124.286003,30,CN,"Zhenxing, Dandong",yes,DDG,
44646,medium_airport,Lefkoniko Airport / Geçitkale Air Base,35.235947,33.724358,146,CY,Geçitkale,yes,GEC,
1652,medium_airport,Cat Lake Airport,51.7271995544434,-91.8244018554688,1344,CA,Cat Lake,yes,YAC,
1654,medium_airport,Fort Frances Municipal Airport,48.6542015075684,-93.439697265625,1125,CA,Fort Frances,yes,YAG,
1655,medium_airport,La Grande-4 Airport,53.754699707,-73.6753005981,1005,CA,La Grande-4,no,YAH,
1656,medium_airport,Alert Bay Airport,50.5821990966797,-126.916000366211,240,CA,Alert Bay,no,YAL,
1657,medium_airport,Sault Ste Marie Airport,46.485001,-84.509399,630,CA,Sault Ste Marie,yes,YAM,
1658,medium_airport,Kasabonika Airport,53.5247001647949,-88.6427993774414,672,CA,Kasabonika,yes,XKS,
1659,medium_airport,Kangirsuk Airport,60.0271987915039,-69.9991989135742,403,CA,Kangirsuk,yes,YKG,
1660,medium_airport,Attawapiskat Airport,52.9275016784668,-82.4319000244141,31,CA,Attawapiskat,yes,YAT,
1665,medium_airport,St. Anthony Airport,51.3918991089,-56.0830993652,108,CA,St. Anthony,yes,YAY,
1666,medium_airport,Tofino / Long Beach Airport,49.079833,-125.775583,80,CA,Tofino,yes,YAZ,
1668,medium_airport,Kugaaruk Airport,68.534401,-89.808098,56,CA,Kugaaruk,yes,YBB,
1669,medium_airport,Baie-Comeau Airport,49.1325,-68.204399,71,CA,Baie-Comeau,yes,YBC,YBC
1670,medium_airport,Bella Coola Airport,52.387501,-126.596001,117,CA,Bella Coola,yes,QBC,
1671,medium_airport,Uranium City Airport,59.5614013671875,-108.481002807617,1044,CA,Uranium City,yes,YBE,
1672,medium_airport,Bonnyville Airport,54.304199,-110.744003,1836,CA,Bonnyville,yes,YBY,
1673,medium_airport,CFB Bagotville,48.3306007385254,-70.9963989257813,522,CA,Bagotville,yes,YBG,
1674,medium_airport,Baker Lake Airport,64.2988967896,-96.077796936,59,CA,Baker Lake,yes,YBK,
1675,medium_airport,Campbell River Airport,49.950802,-125.271004,346,CA,Campbell River,yes,YBL,YBL
1677,medium_airport,Tadoule Lake Airport,58.7061,-98.512199,923,CA,Tadoule Lake,yes,XTL,
1678,medium_airport,Brandon Municipal Airport,49.91,-99.951897,1343,CA,Brandon,yes,YBR,
1679,medium_airport,Brochet Airport,57.8894,-101.679001,1136,CA,Brochet,yes,YBT,
1681,medium_airport,Berens River Airport,52.358898,-97.018303,728,CA,Berens River,yes,YBV,
1683,medium_airport,Lourdes de Blanc Sablon Airport,51.4435997009,-57.1852989197,121,CA,Lourdes-De-Blanc-Sablon,yes,YBX,
1684,medium_airport,Cartwright Airport,53.6828002929687,-57.0419006347656,40,CA,Cartwright,yes,YRF,
1685,medium_airport,Cambridge Bay Airport,69.1081008911,-105.138000488,90,CA,Cambridge Bay,yes,YCB,
1686,medium_airport,Cornwall Regional Airport,45.0928001403809,-74.5633010864258,175,CA,Cornwall,no,YCC,
1687,large_airport,Nanaimo International Air And Space Port / RCAF Nanaimo Base,49.05497,-123.869863,92,CA,Nanaimo,yes,YCD,
1688,medium_airport,Centralia / James T. Field Memorial Aerodrome,43.285599,-81.508301,824,CA,Centralia,no,YCE,CYCE
1689,medium_airport,Castlegar/West Kootenay Regional Airport,49.2963981628,-117.632003784,1624,CA,Castlegar,yes,YCG,
1690,medium_airport,Miramichi Airport,47.007801,-65.449203,108,CA,Miramichi,yes,YCH,
1691,medium_airport,Charlo Airport,47.990799,-66.330299,132,CA,Charlo,yes,YCL,
1692,medium_airport,Cochrane Airport,49.105598449707,-81.0136032104492,861,CA,Cochrane,no,YCN,
1693,medium_airport,Kugluktuk Airport,67.816704,-115.143997,74,CA,Kugluktuk,yes,YCO,
1695,medium_airport,Chetwynd Airport,55.687198638916,-121.626998901367,2000,CA,Chetwynd,no,YCQ,
1696,medium_airport,Cross Lake (Charlie Sinclair Memorial) Airport,54.6105995178223,-97.7608032226562,709,CA,Cross Lake,no,YCR,
1697,medium_airport,Chesterfield Inlet Airport,63.3469009399,-90.7311019897,32,CA,Chesterfield Inlet,yes,YCS,
1701,medium_airport,Clyde River Airport,70.4860992432,-68.5167007446,87,CA,Clyde River,yes,YCY,
1703,medium_airport,Dawson City Airport,64.043098449707,-139.128005981445,1215,CA,Dawson City,yes,YDA,
1704,medium_airport,Burwash Airport,61.3711013793945,-139.041000366211,2647,CA,Burwash,no,YDB,
1706,medium_airport,Deer Lake Airport,49.2108001708984,-57.3913993835449,72,CA,Deer Lake,yes,YDF,
1709,medium_airport,Ross River Airport,61.9706001282,-132.42300415,2314,CA,Ross River,no,XRR,YDM
1710,medium_airport,Dauphin Barker Airport,51.1007995605469,-100.052001953125,999,CA,Dauphin,yes,YDN,
1711,medium_airport,Dolbeau St Felicien Airport,48.778499603271,-72.375,372,CA,Dolbeau-St-Félicien,no,YDO,
1712,medium_airport,Nain Airport,56.5491981506348,-61.6803016662598,22,CA,Nain,yes,YDP,
1713,medium_airport,Dawson Creek Airport,55.7422981262207,-120.182998657227,2148,CA,Dawson Creek,yes,YDQ,
1717,large_airport,Edmonton International Airport,53.3097000122,-113.580001831,2373,CA,Edmonton,yes,YEG,CYEG
1718,medium_airport,Arviat Airport,61.0942001343,-94.0708007812,32,CA,Arviat,yes,YEK,
1719,medium_airport,Elliot Lake Municipal Airport,46.351398468,-82.5614013672,1087,CA,Elliot Lake,no,YEL,
1720,medium_airport,Manitoulin East Municipal Airport,45.842435,-81.857595,869,CA,Sheguiandah,no,YEM,
1721,medium_airport,Estevan Airport,49.2103004456,-102.966003418,1905,CA,Estevan,no,YEN,
1722,medium_airport,Fort Severn Airport,56.0189018249512,-87.6761016845703,48,CA,Fort Severn,yes,YER,
1724,medium_airport,Edson Airport,53.5788993835,-116.464996338,3043,CA,Edson,no,YET,
1726,medium_airport,Inuvik Mike Zubko Airport,68.3041992188,-133.483001709,224,CA,Inuvik,yes,YEV,
1727,medium_airport,Amos/Magny Airport,48.563903,-78.249702,1068,CA,Amos,no,YEY,
1728,medium_airport,Fort Albany Airport,52.2014007568359,-81.6968994140625,48,CA,Fort Albany,yes,YFA,
1729,medium_airport,Iqaluit Airport,63.756402,-68.555801,110,CA,Iqaluit,yes,YFB,
1730,medium_airport,Fredericton Airport,45.8689002990723,-66.5372009277344,68,CA,Fredericton,yes,YFC,
1732,medium_airport,Forestville Airport,48.7461013793945,-69.0971984863281,293,CA,Forestville,no,YFE,
1733,medium_airport,Fort Hope Airport,51.5619010925293,-87.9077987670899,899,CA,Fort Hope,yes,YFH,
1734,medium_airport,La Macaza / Mont-Tremblant International Inc Airport,46.409401,-74.779999,827,CA,Rivière Rouge,yes,YTM,
1735,medium_airport,Flin Flon Airport,54.6781005859375,-101.681999206543,997,CA,Flin Flon,yes,YFO,
1736,medium_airport,Fort Resolution Airport,61.1808013916,-113.690002441,526,CA,Fort Resolution,no,YFR,
1737,medium_airport,Fort Simpson Airport,61.7602005004883,-121.236999511719,555,CA,Fort Simpson,yes,YFS,
1738,medium_airport,Makkovik Airport,55.0769004821777,-59.1864013671875,234,CA,Makkovik,yes,YMN,
1739,medium_airport,Texada Gillies Bay Airport,49.6941986083984,-124.517997741699,326,CA,Texada,yes,YGB,
1742,medium_airport,Fort Good Hope Airport,66.2407989501953,-128.651000976563,268,CA,Fort Good Hope,yes,YGH,
1743,medium_airport,Kingston Norman Rogers Airport,44.2252998352051,-76.5969009399414,305,CA,Kingston,yes,YGK,
1744,medium_airport,La Grande Rivière Airport,53.625301361084,-77.7042007446289,639,CA,La Grande Rivière,yes,YGL,
1745,medium_airport,Gimli Industrial Park Airport,50.628101348877,-97.0432968139648,753,CA,Gimli,no,YGM,
1746,medium_airport,Gods Lake Narrows Airport,54.5588989257813,-94.4914016723633,617,CA,Gods Lake Narrows,yes,YGO,
1747,medium_airport,Gaspé (Michel-Pouliot) Airport,48.7752990723,-64.4785995483,112,CA,Gaspé,yes,YGP,
1748,medium_airport,Geraldton Greenstone Regional Airport,49.7783012390137,-86.9393997192383,1144,CA,Geraldton,no,YGQ,
1749,medium_airport,Îles-de-la-Madeleine Airport,47.4247016906738,-61.7780990600586,35,CA,Îles-de-la-Madeleine,yes,YGR,
1750,medium_airport,Igloolik Airport,69.3647003174,-81.8161010742,174,CA,Igloolik,yes,YGT,
1751,medium_airport,Havre-Saint-Pierre Airport,50.281898,-63.611401,124,CA,Havre-Saint-Pierre,no,YGV,
1752,medium_airport,Kuujjuarapik Airport,55.2818984985352,-77.7652969360352,34,CA,Kuujjuarapik,yes,YGW,
1753,medium_airport,Gillam Airport,56.3574981689453,-94.7106018066406,476,CA,Gillam,yes,YGX,
1754,medium_airport,Grise Fiord Airport,76.4261016846,-82.9092025757,146,CA,Grise Fiord,yes,YGZ,
1755,medium_airport,Quaqtaq Airport,61.0463981628418,-69.6177978515625,103,CA,Quaqtaq,yes,YQC,
1757,medium_airport,Dryden Regional Airport,49.831699,-92.744202,1354,CA,Dryden,yes,YHD,
1758,medium_airport,Hope Airport,49.3683013916,-121.498001099,128,CA,Hope,no,YHE,
1759,medium_airport,Hearst René Fontaine Municipal Airport,49.7141990661621,-83.6860961914062,827,CA,Hearst,no,YHF,
1760,medium_airport,Nemiscau Airport,51.6911010742188,-76.1355972290039,802,CA,Nemiscau,yes,YNS,
1761,medium_airport,Ulukhaktok Holman Airport,70.7628021240234,-117.805999755859,117,CA,Ulukhaktok,yes,YHI,
1762,medium_airport,Gjoa Haven Airport,68.635597229,-95.8497009277,152,CA,Gjoa Haven,yes,YHK,
1763,medium_airport,John C. Munro Hamilton International Airport,43.1735992432,-79.9349975586,780,CA,Hamilton,yes,YHM,
1764,medium_airport,Hornepayne Municipal Airport,49.1930999755859,-84.758903503418,1099,CA,Hornepayne,no,YHN,
1765,medium_airport,Hopedale Airport,55.448299407959,-60.2285995483398,39,CA,Hopedale,yes,YHO,
1766,medium_airport,Chevery Airport,50.4688987731934,-59.6366996765137,39,CA,Chevery,yes,YHR,
1767,medium_airport,Haines Junction Airport,60.7891998291016,-137.546005249023,2150,CA,Haines Junction,no,YHT,
1768,medium_airport,Montréal / Saint-Hubert Airport,45.5175018311,-73.4169006348,90,CA,Montréal,yes,YHU,
1769,medium_airport,Hay River / Merlyn Carter Airport,60.8396987915,-115.782997131,541,CA,Hay River,yes,YHY,
1770,large_airport,Halifax / Stanfield International Airport,44.8807983398,-63.5085983276,477,CA,Halifax,yes,YHZ,
1771,medium_airport,Atikokan Municipal Airport,48.7738990784,-91.6386032104,1408,CA,Atikokan,no,YIB,
1772,medium_airport,Digby / Annapolis Regional Airport,44.5458450365,-65.7854247093,499,CA,Digby,no,YDG,
1773,medium_airport,St Augustin Airport,51.2117004395,-58.6582984924,20,CA,St-Augustin,no,YIF,
1774,medium_airport,Ivujivik Airport,62.4173011779785,-77.9253005981445,126,CA,Ivujivik,yes,YIK,
1775,medium_airport,Pond Inlet Airport,72.6832962036,-77.9666976929,181,CA,Pond Inlet,yes,YIO,
1776,medium_airport,Island Lake Airport,53.8572006225586,-94.6536026000977,770,CA,Island Lake,yes,YIV,
1778,medium_airport,Fort Liard Airport,60.2358016968,-123.46900177,708,CA,Fort Liard,no,YJF,
1780,medium_airport,St Jean Airport,45.2943992614746,-73.2810974121094,136,CA,St Jean,no,YJN,
1783,medium_airport,Stephenville Airport,48.5442008972168,-58.5499992370606,84,CA,Stephenville,yes,YJT,
1784,medium_airport,Kamloops Airport,50.7022018433,-120.444000244,1133,CA,Kamloops,yes,YKA,
1786,medium_airport,Aklavik/Freddie Carmichael Airport,68.223297,-135.00599,23,CA,Aklavik,yes,LAK,
1787,medium_airport,Waterloo Airport,43.4608001709,-80.3786010742,1055,CA,Kitchener,yes,YKF,
1788,medium_airport,Kangiqsujuaq (Wakeham Bay) Airport,61.5886001587,-71.929397583,501,CA,Kangiqsujuaq,yes,YWB,
1789,medium_airport,Key Lake Airport,57.2560997009277,-105.61799621582,1679,CA,Key Lake,no,YKJ,
1790,medium_airport,Schefferville Airport,54.8053016662598,-66.8052978515625,1709,CA,Schefferville,yes,YKL,
1791,medium_airport,Akulivik Airport,60.8185997009277,-78.1485977172852,75,CA,Akulivik,yes,AKV,
1792,medium_airport,Waskaganish Airport,51.4733009338379,-78.75830078125,80,CA,Waskaganish,yes,YKQ,
1793,medium_airport,Kirkland Lake Airport,48.2103004455566,-79.9813995361328,1157,CA,Kirkland Lake,no,YKX,
1794,medium_airport,Kindersley Airport,51.5175018311,-109.180999756,2277,CA,Kindersley,no,YKY,YKY
1795,medium_airport,Buttonville Municipal Airport,43.8622016906738,-79.370002746582,650,CA,Toronto,no,YKZ,
1796,medium_airport,Aupaluk Airport,59.2966995239258,-69.5997009277344,119,CA,Aupaluk,yes,YPJ,
1798,medium_airport,Kimmirut Airport,62.8499984741,-69.8833007812,175,CA,Kimmirut,yes,YLC,
1799,medium_airport,Chapleau Airport,47.8199996948242,-83.3467025756836,1470,CA,Chapleau,no,YLD,
1800,medium_airport,Lansdowne House Airport,52.1955986022949,-87.934196472168,834,CA,Lansdowne House,yes,YLH,
1801,medium_airport,Meadow Lake Airport,54.125301361084,-108.523002624512,1576,CA,Meadow Lake,no,YLJ,
1802,medium_airport,Lutselk'e Airport,62.418303,-110.681998,596,CA,Lutselk'e,yes,YSG,
1803,medium_airport,Lloydminster Airport,53.3092002868652,-110.072998046875,2193,CA,Lloydminster,yes,YLL,
1805,medium_airport,Leaf Rapids Airport,56.5133018493652,-99.9852981567383,959,CA,Leaf Rapids,no,YLR,
1806,medium_airport,Alert Airport,82.5177993774,-62.2806015015,100,CA,Alert,no,YLT,
1807,medium_airport,Kangiqsualujjuaq (Georges River) Airport,58.7113990783691,-65.9927978515625,215,CA,Kangiqsualujjuaq,yes,XGR,
1808,large_airport,Kelowna International Airport,49.9561,-119.377998,1421,CA,Kelowna,yes,YLW,
1809,medium_airport,Mayo Airport,63.6164016723633,-135.86799621582,1653,CA,Mayo,no,YMA,
1810,medium_airport,Matane Airport,48.8568992614746,-67.4533004760742,102,CA,Matane,no,YME,
1811,medium_airport,Manitouwadge Airport,49.0839004516602,-85.8606033325195,1198,CA,Manitouwadge,no,YMG,
1812,medium_airport,Mary's Harbour Airport,52.3027992248535,-55.8471984863281,38,CA,Mary's Harbour,yes,YMH,
1813,medium_airport,Moose Jaw Air Vice Marshal C. M. McEwen Airport,50.3302993774414,-105.55899810791,1892,CA,Moose Jaw,no,YMJ,
1814,medium_airport,Charlevoix Airport,47.5974998474121,-70.2238998413086,977,CA,Charlevoix,no,YML,
1815,medium_airport,Fort McMurray Airport,56.653301239,-111.222000122,1211,CA,Fort McMurray,yes,YMM,
1816,medium_airport,Moosonee Airport,51.2910995483398,-80.6078033447266,30,CA,Moosonee,yes,YMO,
1817,medium_airport,Chapais Airport,49.771900177002,-74.5280990600586,1270,CA,Chibougamau,yes,YMT,
1818,medium_airport,Umiujaq Airport,56.5360984802246,-76.5183029174805,250,CA,Umiujaq,yes,YUD,
1820,medium_airport,Montreal International (Mirabel) Airport,45.679501,-74.038696,270,CA,Montréal,no,YMX,
1822,medium_airport,Natashquan Airport,50.189998626709,-61.7891998291016,39,CA,Natashquan,yes,YNA,
1823,medium_airport,Wemindji Airport,53.0106010437012,-78.8311004638672,66,CA,Wemindji,yes,YNC,
1824,medium_airport,Ottawa / Gatineau Airport,45.521702,-75.563599,211,CA,Gatineau,yes,YND,CYND
1825,medium_airport,Norway House Airport,53.9583015441895,-97.8442001342773,734,CA,Norway House,yes,YNE,
1828,medium_airport,Points North Landing Airport,58.2766990661621,-104.082000732422,1605,CA,Points North Landing,yes,YNL,
1829,medium_airport,Matagami Airport,49.7616996765137,-77.8028030395508,918,CA,Matagami,no,YNM,
1832,medium_airport,Ekati Airport,64.6988983154,-110.614997864,1536,CA,Ekati,no,YOA,
1833,medium_airport,Old Crow Airport,67.5706024169922,-139.839004516602,824,CA,Old Crow,yes,YOC,
1834,medium_airport,CFB Cold Lake,54.4049987792969,-110.278999328613,1775,CA,Cold Lake,no,YOD,
1835,medium_airport,Oxford House Airport,54.9333000183106,-95.2789001464844,663,CA,Oxford House,yes,YOH,
1836,medium_airport,High Level Airport,58.6213989257813,-117.165000915527,1110,CA,High Level,yes,YOJ,
1837,medium_airport,Toronto/Oshawa Executive Airport,43.922798,-78.894997,460,CA,Oshawa,no,YOO,CYOO
1838,medium_airport,Rainbow Lake Airport,58.4914016723633,-119.407997131348,1759,CA,Rainbow Lake,yes,YOP,
1839,medium_airport,Owen Sound / Billy Bishop Regional Airport,44.5903015137,-80.8375015259,1007,CA,Owen Sound,no,YOS,
1840,large_airport,Ottawa Macdonald-Cartier International Airport,45.3224983215332,-75.6691970825195,374,CA,Ottawa,yes,YOW,YOW
1842,medium_airport,Prince Albert Glass Field,53.2141990662,-105.672996521,1405,CA,Prince Albert,yes,YPA,
1843,medium_airport,Paulatuk (Nora Aliqatchialuk Ruben) Airport,69.3608381154,-124.075469971,15,CA,Paulatuk,yes,YPC,
1844,medium_airport,Port Hawkesbury Airport,45.6567001343,-61.3680992126,377,CA,Port Hawkesbury,no,YPS,
1845,medium_airport,Peace River Airport,56.226898,-117.446999,1873,CA,Peace River,yes,YPE,
1846,medium_airport,Portage-la-Prairie / Southport Airport,49.903099,-98.273817,885,CA,Portage la Prairie,no,YPG,
1847,medium_airport,Inukjuak Airport,58.4719009399414,-78.0768966674805,83,CA,Inukjuak,yes,YPH,
1849,medium_airport,Pickle Lake Airport,51.4463996887207,-90.2142028808594,1267,CA,Pickle Lake,yes,YPL,
1850,medium_airport,Pikangikum Airport,51.8196983337402,-93.9732971191406,1114,CA,Pikangikum,yes,YPM,
1851,medium_airport,Port Menier Airport,49.8363990783691,-64.2885971069336,167,CA,Port-Menier,no,YPN,
1852,medium_airport,Peawanuck Airport,54.9880981445313,-85.4432983398437,173,CA,Peawanuck,yes,YPO,
1854,medium_airport,Peterborough Airport,44.2299995422363,-78.3632965087891,628,CA,Peterborough,no,YPQ,
1855,medium_airport,Prince Rupert Airport,54.2860984802,-130.445007324,116,CA,Prince Rupert,yes,YPR,
1859,medium_airport,Powell River Airport,49.8342018127441,-124.5,425,CA,Powell River,yes,YPW,
1860,medium_airport,Puvirnituq Airport,60.0505981445312,-77.2869033813477,74,CA,Puvirnituq,no,YPX,
1861,medium_airport,Fort Chipewyan Airport,58.7672004699707,-111.116996765137,761,CA,Fort Chipewyan,yes,YPY,
1863,medium_airport,Muskoka Airport,44.9747009277344,-79.3032989501953,925,CA,Muskoka,no,YQA,
1864,medium_airport,Quebec Jean Lesage International Airport,46.7911,-71.393303,244,CA,Quebec,yes,YQB,YQB
1865,medium_airport,The Pas Airport,53.9714012145996,-101.091003417969,887,CA,The Pas,yes,YQD,
1866,medium_airport,Red Deer Regional Airport,52.1822013854981,-113.893997192383,2968,CA,Red Deer,no,YQF,
1867,medium_airport,Windsor Airport,42.2756004333496,-82.9555969238281,622,CA,Windsor,yes,YQG,
1868,medium_airport,Watson Lake Airport,60.1164016723633,-128.822006225586,2255,CA,Watson Lake,no,YQH,
1869,medium_airport,Yarmouth Airport,43.8269004821777,-66.0880966186523,141,CA,Yarmouth,no,YQI,
1870,medium_airport,Kenora Airport,49.7882995605469,-94.3630981445312,1332,CA,Kenora,yes,YQK,
1871,medium_airport,Lethbridge County Airport,49.6302986145,-112.800003052,3048,CA,Lethbridge,yes,YQL,
1872,medium_airport,Greater Moncton Roméo LeBlanc International Airport,46.112202,-64.678596,232,CA,Moncton,yes,YQM,
1873,medium_airport,Nakina Airport,50.1828002929688,-86.696403503418,1057,CA,Nakina,yes,YQN,
1874,medium_airport,Comox Valley Airport / CFB Comox,49.7108,-124.887001,84,CA,Comox,yes,YQQ,
1875,medium_airport,Regina International Airport,50.4319000244141,-104.666000366211,1894,CA,Regina,yes,YQR,
1876,medium_airport,St Thomas Municipal Airport,42.7700004577637,-81.1108016967773,778,CA,St Thomas,no,YQS,
1877,medium_airport,Thunder Bay Airport,48.3718986511231,-89.3238983154297,653,CA,Thunder Bay,yes,YQT,
1878,medium_airport,Grande Prairie Airport,55.1796989441,-118.885002136,2195,CA,Grande Prairie,yes,YQU,
1879,medium_airport,Yorkton Municipal Airport,51.2647018432617,-102.46199798584,1635,CA,Yorkton,no,YQV,
1880,medium_airport,North Battleford Airport,52.7691993713379,-108.244003295898,1799,CA,North Battleford,no,YQW,
1881,medium_airport,Gander International Airport,48.9369010925293,-54.5680999755859,496,CA,Gander,yes,YQX,
1882,medium_airport,Sydney / J.A. Douglas McCurdy Airport,46.1614,-60.047798,203,CA,Sydney,yes,YQY,
1883,medium_airport,Quesnel Airport,53.0261001586914,-122.51000213623,1789,CA,Quesnel,yes,YQZ,
1884,medium_airport,Rae Lakes Airport,64.116096496582,-117.309997558594,723,CA,Gamètì,yes,YRA,
1885,medium_airport,Resolute Bay Airport,74.7169036865,-94.9693984985,215,CA,Resolute Bay,yes,YRB,
1887,medium_airport,Rivière-du-Loup Airport,47.7644004821777,-69.5847015380859,427,CA,Rivière-du-Loup,no,YRI,
1888,medium_airport,Roberval Airport,48.5200004577637,-72.2656021118164,586,CA,Roberval,yes,YRJ,
1889,medium_airport,Red Lake Airport,51.0668983459473,-93.793098449707,1265,CA,Red Lake,yes,YRL,
1891,medium_airport,Ottawa / Rockcliffe Airport,45.4603004456,-75.6461029053,188,CA,Ottawa,no,YRO,CYRO
1893,medium_airport,Trois-Rivières Airport,46.3527984619141,-72.6793975830078,199,CA,Trois-Rivières,no,YRQ,
1894,medium_airport,Red Sucker Lake Airport,54.1671981811523,-93.5571975708008,729,CA,Red Sucker Lake,no,YRS,
1895,medium_airport,Rankin Inlet Airport,62.8114013672,-92.1157989502,94,CA,Rankin Inlet,yes,YRT,
1896,medium_airport,Revelstoke Airport,50.962245,-118.184258,1459,CA,Revelstoke,no,YRV,
1897,medium_airport,Sudbury Airport,46.625,-80.7988967895508,1141,CA,Sudbury,yes,YSB,
1898,medium_airport,Sherbrooke Airport,45.4385986328125,-71.6913986206055,792,CA,Sherbrooke,no,YSC,
1901,medium_airport,Stony Rapids Airport,59.250301361084,-105.841003417969,805,CA,Stony Rapids,yes,YSF,
1903,medium_airport,Smiths Falls-Montague (Russ Beach) Airport,44.94580078125,-75.9405975341797,416,CA,Smiths Falls,no,YSH,
1904,medium_airport,Saint John Airport,45.3161010742187,-65.8902969360352,357,CA,Saint John,yes,YSJ,
1905,medium_airport,Sanikiluaq Airport,56.5377998352,-79.2466964722,104,CA,Sanikiluaq,yes,YSK,
1906,medium_airport,St Leonard Airport,47.1575012207031,-67.8347015380859,793,CA,St Leonard,no,YSL,
1907,medium_airport,Fort Smith Airport,60.020302,-111.961998,671,CA,Fort Smith,yes,YSM,
1908,medium_airport,Niagara District Airport,43.1916999816895,-79.1716995239258,321,CA,St Catharines,no,YCM,
1909,medium_airport,Marathon Airport,48.755298614502,-86.3443984985352,1035,CA,Marathon,no,YSP,
1912,medium_airport,St. Theresa Point Airport,53.8456001281738,-94.8518981933594,773,CA,St. Theresa Point,yes,YST,
1913,medium_airport,Summerside Airport,46.440601,-63.833599,56,CA,Slemon Park,no,YSU,
1915,medium_airport,Sachs Harbour (David Nasogaluak Jr. Saaryuaq) Airport,71.9938964844,-125.242996216,282,CA,Sachs Harbour,yes,YSY,
1917,medium_airport,Pembroke Airport,45.8643989562988,-77.2517013549805,529,CA,Pembroke,no,YTA,
1918,medium_airport,Cape Dorset Airport,64.2300033569,-76.5267028809,164,CA,Cape Dorset,yes,YTE,
1919,medium_airport,Alma Airport,48.5088996887,-71.6418991089,445,CA,Alma,yes,YTF,
1920,medium_airport,Thompson Airport,55.8011016845703,-97.8641967773438,729,CA,Thompson,yes,YTH,
1921,medium_airport,Big Trout Lake Airport,53.817798614502,-89.8968963623047,729,CA,Big Trout Lake,yes,YTL,
1923,medium_airport,Tasiujaq Airport,58.6678009033203,-69.9558029174805,122,CA,Tasiujaq,no,YTQ,
1924,medium_airport,CFB Trenton,44.1189002990723,-77.5280990600586,283,CA,Trenton,no,YTR,
1925,medium_airport,Timmins/Victor M. Power,48.5696983337,-81.376701355,967,CA,Timmins,yes,YTS,
1926,medium_airport,Billy Bishop Toronto City Centre Airport,43.627499,-79.396202,252,CA,Toronto,yes,YTZ,
1927,medium_airport,Tuktoyaktuk Airport,69.4332962036133,-133.026000976563,15,CA,Tuktoyaktuk,yes,YUB,
1928,large_airport,Montreal / Pierre Elliott Trudeau International Airport,45.4706001282,-73.7407989502,118,CA,Montréal,yes,YUL,YUL
1929,medium_airport,Naujaat Airport,66.5214,-86.224701,80,CA,Repulse Bay,yes,YUT,
1930,medium_airport,Hall Beach Airport,68.7761001587,-81.2425,30,CA,Hall Beach,yes,YUX,
1931,medium_airport,Rouyn Noranda Airport,48.2061004638672,-78.8356018066406,988,CA,Rouyn-Noranda,yes,YUY,
1932,medium_airport,Bonaventure Airport,48.0710983276367,-65.4602966308594,123,CA,Bonaventure,no,YVB,
1933,medium_airport,La Ronge Airport,55.1514015198,-105.262001038,1242,CA,La Ronge,yes,YVC,
1936,medium_airport,Vernon Airport,50.2481002807617,-119.331001281738,1140,CA,Vernon,no,YVE,
1937,medium_airport,Qikiqtarjuaq Airport,67.5457992554,-64.0314025879,21,CA,Qikiqtarjuaq,yes,YVM,
1938,medium_airport,Val-d'Or Airport,48.0532989502,-77.7827987671,1107,CA,Val-d'Or,yes,YVO,
1939,medium_airport,Kuujjuaq Airport,58.0960998535156,-68.4269027709961,129,CA,Kuujjuaq,yes,YVP,
1940,medium_airport,Norman Wells Airport,65.2816009521484,-126.797996520996,238,CA,Norman Wells,yes,YVQ,
1941,large_airport,Vancouver International Airport,49.193901062,-123.183998108,14,CA,Vancouver,yes,YVR,
1943,medium_airport,Wiarton Airport,44.7458,-81.107201,729,CA,Wiarton,no,YVV,
1944,medium_airport,Deer Lake Airport,52.6557998657227,-94.0614013671875,1092,CA,Deer Lake,yes,YVZ,
1945,medium_airport,Petawawa Airport,45.9522018432617,-77.3191986083984,427,CA,Petawawa,no,YWA,
1946,large_airport,Winnipeg / James Armstrong Richardson International Airport,49.9099998474,-97.2398986816,783,CA,Winnipeg,yes,YWG,YWG
1948,medium_airport,Déline Airport,65.2110977172852,-123.435997009277,703,CA,Déline,yes,YWJ,
1949,medium_airport,Wabush Airport,52.9219017028809,-66.8644027709961,1808,CA,Wabush,yes,YWK,
1950,medium_airport,Williams Lake Airport,52.1831016541,-122.054000854,3085,CA,Williams Lake,yes,YWL,
1952,medium_airport,Webequie Airport,52.9593933975,-87.3748683929,685,CA,Webequie,yes,YWP,
1954,medium_airport,Wrigley Airport,63.209400177002,-123.436996459961,489,CA,Wrigley,no,YWY,
1955,medium_airport,Cranbrook/Canadian Rockies International Airport,49.610801696777,-115.78199768066,3082,CA,Cranbrook,yes,YXC,
1957,medium_airport,Saskatoon John G. Diefenbaker International Airport,52.1707992553711,-106.699996948242,1653,CA,Saskatoon,yes,YXE,
1958,medium_airport,Medicine Hat Airport,50.0189018249512,-110.721000671387,2352,CA,Medicine Hat,yes,YXH,
1959,medium_airport,Fort St John Airport,56.238098,-120.739998,2280,CA,Fort St.John,yes,YXJ,
1960,medium_airport,Rimouski Airport,48.4780998229981,-68.4969024658203,82,CA,Rimouski,no,YXK,
1961,medium_airport,Sioux Lookout Airport,50.113899230957,-91.9052963256836,1258,CA,Sioux Lookout,yes,YXL,
1962,medium_airport,Whale Cove Airport,62.2400016785,-92.5980987549,40,CA,Whale Cove,yes,YXN,
1963,medium_airport,Pangnirtung Airport,66.1449966431,-65.7136001587,75,CA,Pangnirtung,yes,YXP,
1964,medium_airport,Beaver Creek Airport,62.4103012084961,-140.867004394531,2131,CA,Beaver Creek,no,YXQ,
1965,medium_airport,Earlton (Timiskaming Regional) Airport,47.6974006546,-79.8473453522,800,CA,Earlton,no,YXR,
1966,medium_airport,Prince George Airport,53.8894004822,-122.679000854,2267,CA,Prince George,yes,YXS,
1967,medium_airport,Northwest Regional Airport Terrace-Kitimat,54.468498,-128.576009,713,CA,Terrace,yes,YXT,
1968,medium_airport,London Airport,43.035599,-81.1539,912,CA,London,yes,YXU,
1969,large_airport,Abbotsford International Airport,49.025299,-122.361,195,CA,Abbotsford,yes,YXX,
1970,large_airport,Whitehorse / Erik Nielsen International Airport,60.709599,-135.067001,2317,CA,Whitehorse,yes,YXY,
1971,medium_airport,Wawa Airport,47.9667015075684,-84.7866973876953,942,CA,Wawa,no,YXZ,
1972,medium_airport,North Bay Jack Garland Airport,46.363602,-79.422798,1215,CA,North Bay,yes,YYB,
1973,large_airport,Calgary International Airport,51.113899231,-114.019996643,3557,CA,Calgary,yes,YYC,
1974,medium_airport,Smithers Airport,54.8246994018555,-127.182998657227,1712,CA,Smithers,yes,YYD,
1975,medium_airport,Fort Nelson Airport,58.8363990784,-122.597000122,1253,CA,Fort Nelson,yes,YYE,
1976,medium_airport,Penticton Airport,49.4631004333496,-119.601997375488,1129,CA,Penticton,yes,YYF,
1977,medium_airport,Charlottetown Airport,46.2900009155274,-63.1211013793945,160,CA,Charlottetown,yes,YYG,
1978,medium_airport,Taloyoak Airport,69.5467,-93.576698,92,CA,Taloyoak,yes,YYH,
1979,large_airport,Victoria International Airport,48.646900177,-123.426002502,63,CA,Victoria,yes,YYJ,
1980,medium_airport,Lynn Lake Airport,56.863899230957,-101.075996398926,1170,CA,Lynn Lake,yes,YYL,
1982,medium_airport,Swift Current Airport,50.2919006348,-107.691001892,2680,CA,Swift Current,no,YYN,
1984,medium_airport,Churchill Airport,58.739200592041,-94.0650024414062,94,CA,Churchill,yes,YYQ,
1985,medium_airport,Goose Bay Airport,53.3191986084,-60.4258003235,160,CA,Goose Bay,yes,YYR,
1986,large_airport,St. John's International Airport,47.618598938,-52.7518997192,461,CA,St. John's,yes,YYT,
1987,medium_airport,Kapuskasing Airport,49.4138984680176,-82.4674987792969,743,CA,Kapuskasing,yes,YYU,
1988,medium_airport,Armstrong Airport,50.2902984619141,-88.9096984863281,1058,CA,Armstrong,no,YYW,
1989,medium_airport,Mont Joli Airport,48.6086006164551,-68.2080993652344,172,CA,Mont-Joli,yes,YYY,
1990,large_airport,Lester B. Pearson International Airport,43.6772003174,-79.6305999756,569,CA,Toronto,yes,YYZ,YYZ
1992,medium_airport,Gore Bay Manitoulin Airport,45.8853,-82.567802,623,CA,Gore Bay,no,YZE,
1993,large_airport,Yellowknife International Airport,62.462799,-114.440002,675,CA,Yellowknife,yes,YZF,
1994,medium_airport,Salluit Airport,62.1794013977051,-75.6671981811523,743,CA,Salluit,yes,YZG,
1995,medium_airport,Slave Lake Airport,55.2930984497,-114.777000427,1912,CA,Slave Lake,no,YZH,
1996,medium_airport,Sandspit Airport,53.2542991638,-131.813995361,21,CA,Sandspit,yes,YZP,
1997,medium_airport,Chris Hadfield Airport,42.9994010925293,-82.3088989257812,594,CA,Sarnia,yes,YZR,
1998,medium_airport,Coral Harbour Airport,64.1932983398,-83.3593978882,210,CA,Coral Harbour,yes,YZS,
1999,medium_airport,Port Hardy Airport,50.6805992126465,-127.366996765137,71,CA,Port Hardy,yes,YZT,
2000,medium_airport,Whitecourt Airport,54.1439018249512,-115.787002563477,2567,CA,Whitecourt,no,YZU,
2001,medium_airport,Sept-Îles Airport,50.2233009338379,-66.2656021118164,180,CA,Sept-Îles,yes,YZV,
2002,medium_airport,Teslin Airport,60.1727981567383,-132.74299621582,2313,CA,Teslin,no,YZW,
2003,medium_airport,CFB Greenwood,44.9844017028809,-64.9169006347656,92,CA,Greenwood,no,YZX,
2005,medium_airport,York Landing Airport,56.0894012451172,-96.0892028808594,621,CA,York Landing,yes,ZAC,
2006,medium_airport,Shuswap Regional Airport,50.682802,-119.228996,1751,CA,Salmon Arm,no,YSN,
2008,medium_airport,Boundary Bay Airport,49.0742,-123.012001,6,CA,Vancouver,no,YDT,
2009,medium_airport,Ilford Airport,56.05163,-95.620523,642,CA,Ilford,yes,ILF,
2010,medium_airport,Bathurst Airport,47.629699707,-65.738899231,193,CA,Bathurst,yes,ZBF,
2011,medium_airport,Bromont (Roland Desourdy) Airport,45.2907981873,-72.7414016724,375,CA,Bromont,no,ZBM,
2012,medium_airport,Kelsey Airport,56.0374984741,-96.5096969604,600,CA,Kelsey,no,KES,ZEE
2013,medium_airport,Eastmain River Airport,52.2263984680176,-78.5224990844727,24,CA,Eastmain River,yes,ZEM,
2014,medium_airport,Faro Airport,62.2075004577637,-133.376007080078,2351,CA,Faro,no,ZFA,
2015,medium_airport,Fond-Du-Lac Airport,59.334400177002,-107.181999206543,814,CA,Fond-Du-Lac,yes,ZFD,
2016,medium_airport,Pukatawagan Airport,55.7491989136,-101.26599884,958,CA,Pukatawagan,no,XPK,ZFG
2017,medium_airport,Fort Mcpherson Airport,67.4075012207031,-134.860992431641,116,CA,Fort Mcpherson,yes,ZFM,
2018,medium_airport,Tulita Airport,64.909697,-125.572998,332,CA,Tulita,yes,ZFN,
2019,medium_airport,Grand Forks Airport,49.0155982971191,-118.430999755859,1720,CA,Grand Forks,no,ZGF,
2020,medium_airport,Gods River Airport,54.8396987915039,-94.0785980224609,627,CA,Gods River,yes,ZGI,
2021,medium_airport,Little Grand Rapids Airport,52.0456008911133,-95.4657974243164,1005,CA,Little Grand Rapids,no,ZGR,
2023,medium_airport,Jenpeg Airport,54.5189018249512,-98.0460968017578,729,CA,Jenpeg,no,ZJG,
2024,medium_airport,Swan River Airport,52.1206016540527,-101.236000061035,1100,CA,Swan River,yes,ZJN,
2025,medium_airport,Kashechewan Airport,52.2825012207031,-81.6778030395508,35,CA,Kashechewan,yes,ZKE,
2026,medium_airport,Thicket Portage Airport,55.3189010620117,-97.7078018188477,678,CA,Thicket Portage,no,YTD,
2027,medium_airport,Muskrat Dam Airport,53.4413986206055,-91.7628021240234,911,CA,Muskrat Dam,yes,MSA,
2029,medium_airport,Pikwitonei Airport,55.5889015197754,-97.1641998291016,630,CA,Pikwitonei,no,PIW,
2030,medium_airport,Masset Airport,54.0275001525879,-132.125,25,CA,Masset,yes,ZMT,
2031,medium_airport,Poplar River Airport,52.9965258788,-97.2741937637,728,CA,Poplar River,no,XPP,
2033,medium_airport,Sachigo Lake Airport,53.8911018371582,-92.196403503418,876,CA,Sachigo Lake,yes,ZPB,
2034,medium_airport,Pincher Creek Airport,49.5205993652,-113.997001648,3903,CA,Pincher Creek,no,WPC,
2036,medium_airport,Round Lake (Weagamow Lake) Airport,52.9435997009277,-91.3127975463867,974,CA,Round Lake,yes,ZRJ,
2037,medium_airport,Sandy Lake Airport,53.0642013549805,-93.3443984985352,951,CA,Sandy Lake,yes,ZSJ,
2038,medium_airport,South Indian Lake Airport,56.7928009033,-98.9072036743,951,CA,South Indian Lake,no,XSI,ZSN
2039,medium_airport,Stewart Airport,55.935410448,-129.982434511,24,CA,Stewart,no,ZST,CZST
2041,medium_airport,Shamattawa Airport,55.8656005859375,-92.0813980102539,289,CA,Shamattawa,yes,ZTM,
2042,medium_airport,Ignace Municipal Airport,49.4296989440918,-91.7177963256836,1435,CA,Ignace,no,ZUC,
2045,medium_airport,Lac Brochet Airport,58.6175003052,-101.46900177,1211,CA,Lac Brochet,no,XLB,ZWH
2046,medium_airport,Wollaston Lake Airport,58.1068992614746,-103.171997070313,1360,CA,Wollaston Lake,yes,ZWL,
2047,medium_airport,Blida Airport,36.503601,2.81417,535,DZ,Blida,no,QLD,
2048,medium_airport,Bou Saada Airport,35.3325,4.20639,1506,DZ,Ouled Sidi Brahim,no,BUJ,
2049,large_airport,Soummam – Abane Ramdane Airport,36.712793,5.07857,20,DZ,Béjaïa,yes,BJA,BJ1
2050,large_airport,Houari Boumediene Airport,36.691002,3.21541,82,DZ,Algiers,yes,ALG,
2051,medium_airport,Djanet Inedbirene Airport,24.292801,9.45244,3176,DZ,Djanet,yes,DJG,
2054,medium_airport,Illizi Takhamalt Airport,26.7234992981,8.62265014648,1778,DZ,Illizi,yes,VVZ,
32193,medium_airport,Ain Arnat Airport,36.1781005859,5.32449007034,3360,DZ,Sétif,yes,QSF,
2056,medium_airport,Aguenar – Hadj Bey Akhamok Airport,22.8115005493,5.45107984543,4518,DZ,Tamanrasset,yes,TMR,
2057,medium_airport,Jijel Ferhat Abbas Airport,36.7951011658,5.87361001968,36,DZ,Jijel,yes,GJL,
2058,medium_airport,Mecheria Airport,33.535900116,-0.242353007197,3855,DZ,Mecheria,no,MZW,
2060,medium_airport,Rabah Bitat Airport,36.822201,7.809174,16,DZ,Annaba,yes,AAE,
2061,medium_airport,Mohamed Boudiaf International Airport,36.2760009765625,6.62038993835449,2265,DZ,Constantine,yes,CZL,
2062,medium_airport,Cheikh Larbi Tébessi Airport,35.4315986633,8.12071990967,2661,DZ,Tébessi,yes,TEE,
2063,medium_airport,Batna Mostefa Ben Boulaid Airport,35.752102,6.30859,2697,DZ,Batna,yes,BLJ,
2064,medium_airport,Hassi R'Mel Airport,32.930401,3.31154,2540,DZ,Hassi R'Mel,yes,HRM,
2065,medium_airport,Abdelhafid Boussouf Bou Chekif Airport,35.341099,1.46315,3245,DZ,Tiaret,no,TID,
2067,medium_airport,Tindouf Airport,27.7003993988,-8.1670999527,1453,DZ,Tindouf,yes,TIN,
2068,medium_airport,Chlef Aboubakr Belkaid International Airport,36.217166,1.342237,463,DZ,Chlef,no,CFK,
2069,medium_airport,Oran Tafraoui Airport,35.5424,-0.532278,367,DZ,Tafraoui,no,TAF,
2070,medium_airport,Zenata – Messali El Hadj Airport,35.0167007446,-1.45000004768,814,DZ,Tlemcen,yes,TLM,
2071,medium_airport,Oran International Airport Ahmed Ben Bella,35.623901,-0.621183,295,DZ,Oran,yes,ORN,
2072,medium_airport,Béchar Boudghene Ben Ali Lotfi Airport,31.6457004547119,-2.26986002922058,2661,DZ,Béchar,yes,CBH,
2074,medium_airport,Ghriss Airport,35.207699,0.147142,1686,DZ,Ghriss,no,MUW,
2075,medium_airport,Touat Cheikh Sidi Mohamed Belkebir Airport,27.837601,-0.186414,919,DZ,Adrar,yes,AZR,
2076,medium_airport,Biskra - Mohamed Khider Airport,34.793301,5.73823,289,DZ,Biskra,yes,BSK,
2077,medium_airport,El Golea Airport,30.571301,2.85959,1306,DZ,El Menia,yes,ELG,
2078,medium_airport,Noumérat - Moufdi Zakaria Airport,32.3841018676758,3.79411005973816,1512,DZ,Ghardaïa,yes,GHA,
2079,medium_airport,Hassi Messaoud-Oued Irara Krim Belkacem Airport,31.673,6.14044,463,DZ,Hassi Messaoud,yes,HME,
2080,medium_airport,In Salah Airport,27.2509994507,2.51202011108,896,DZ,In Salah,yes,INZ,
2081,medium_airport,Touggourt Sidi Madhi Airport,33.067798614502,6.0886697769165,279,DZ,Touggourt,yes,TGR,
2082,medium_airport,Laghouat - Molay Ahmed Medeghri Airport,33.7644,2.92834,2510,DZ,Laghouat,no,LOO,
2083,medium_airport,Guemar Airport,33.5113983154,6.77679014206,203,DZ,Guemar,yes,ELU,
2084,medium_airport,Timimoun Airport,29.2371006012,0.276033014059,1027,DZ,Timimoun,yes,TMX,
2085,medium_airport,Ain Beida Airport,31.9172,5.41278,492,DZ,Ouargla,yes,OGX,
2086,medium_airport,Zarzaitine - In Aménas Airport,28.0515,9.64291,1847,DZ,In Aménas,yes,IAM,
2087,medium_airport,Cadjehoun Airport,6.3572301864624,2.38435006141663,19,BJ,Cotonou,yes,COO,
316519,medium_airport,Baicheng Chang'an Airport,45.505278,123.019722,480,CN,Baicheng,no,DBC,
2088,large_airport,Ouagadougou Airport,12.3532,-1.51242,1037,BF,Ouagadougou,yes,OUA,
2089,medium_airport,Bobo Dioulasso Airport,11.1600999832153,-4.33096981048584,1511,BF,Bobo Dioulasso,yes,BOY,
2090,large_airport,Kotoka International Airport,5.60518980026245,-0.166786000132561,205,GH,Accra,yes,ACC,
2091,medium_airport,Tamale Airport,9.55718994140625,-0.863214015960693,553,GH,Tamale,yes,TML,
2093,medium_airport,Kumasi Airport,6.71456003189087,-1.59081995487213,942,GH,Kumasi,yes,KMS,
2094,medium_airport,Sunyani Airport,7.36183023452759,-2.32875990867615,1014,GH,Sunyani,yes,NYI,
2095,medium_airport,Takoradi Airport,4.8960599899292,-1.77476000785828,21,GH,Sekondi-Takoradi,yes,TKD,
2096,medium_airport,Félix-Houphouët-Boigny International Airport,5.26139,-3.92629,21,CI,Abidjan,yes,ABJ,
2097,medium_airport,Bouaké Airport,7.7388,-5.07367,1230,CI,Bouaké,yes,BYK,
2098,medium_airport,Daloa Airport,6.79280996322632,-6.47318983078003,823,CI,,no,DJO,
2099,medium_airport,Korhogo Airport,9.38718032837,-5.55666017532,1214,CI,Korhogo,no,HGO,
2100,medium_airport,Man Airport,7.27206993103027,-7.58735990524292,1089,CI,,no,MJC,
2101,medium_airport,San Pedro Airport,4.74671983718872,-6.66082000732422,26,CI,,no,SPY,
2102,medium_airport,Yamoussoukro Airport,6.9031701088,-5.36558008194,699,CI,Yamoussoukro,no,ASK,
2104,large_airport,Nnamdi Azikiwe International Airport,9.00679016113281,7.26316976547241,1123,NG,Abuja,yes,ABV,
309668,large_airport,Akwa Ibom International Airport,4.8725,8.093,170,NG,Uyo,yes,QUO,
2105,medium_airport,Akure Airport,7.24673986434937,5.30101013183594,1100,NG,Akure,yes,AKR,
300781,medium_airport,Asaba International Airport,6.204167,6.665278,305,NG,Asaba,no,ABB,
323056,medium_airport,Sir Abubakar Tafawa Balewa International Airport,10.482833,9.744,1965,NG,Bauchi,yes,BCU,
2106,medium_airport,Benin Airport,6.31697988510132,5.59950017929077,258,NG,Benin,yes,BNI,
2107,medium_airport,Margaret Ekpo International Airport,4.97601985931397,8.34720039367676,210,NG,Calabar,yes,CBQ,
2108,medium_airport,Akanu Ibiam International Airport,6.47426986694336,7.56196022033691,466,NG,Enegu,yes,ENU,
2110,medium_airport,Ibadan Airport,7.36246013641357,3.97832989692688,725,NG,Ibadan,yes,IBA,
2111,medium_airport,Ilorin International Airport,8.44021034240723,4.49391984939575,1126,NG,Ilorin,yes,ILR,
2112,medium_airport,Sam Mbakwe International Airport,5.4270601272583,7.20602989196777,373,NG,Owerri,yes,QOW,
2113,medium_airport,Yakubu Gowon Airport,9.63982963562012,8.86905002593994,4232,NG,Jos,yes,JOS,
2114,medium_airport,Kaduna Airport,10.6960000991821,7.32010984420776,2073,NG,Kaduna,yes,KAD,
2115,large_airport,Mallam Aminu International Airport,12.0476,8.52462,1562,NG,Kano,yes,KAN,
2116,medium_airport,Maiduguri International Airport,11.855299949646,13.0809001922607,1099,NG,Maiduguri,yes,MIU,
2117,medium_airport,Makurdi Airport,7.70388,8.61394,371,NG,Makurdi,yes,MDI,
2118,large_airport,Murtala Muhammed International Airport,6.57737016677856,3.32116007804871,135,NG,Lagos,yes,LOS,
2119,medium_airport,Minna Airport,9.65217018127441,6.4622597694397,834,NG,Minna,no,MXJ,
2120,medium_airport,Port Harcourt International Airport,5.01549005508423,6.94959020614624,87,NG,Port Harcourt,yes,PHC,
2121,medium_airport,Sadiq Abubakar III International Airport,12.9162998199463,5.20719003677368,1010,NG,Sokoto,yes,SKO,
2122,medium_airport,Yola Airport,9.25755023956299,12.4303998947144,599,NG,Yola,yes,YOL,
2123,medium_airport,Zaria Airport,11.1302,7.68581,2170,NG,Zaria,no,ZAR,
2124,medium_airport,Maradi Airport,13.5024995803833,7.12674999237061,1240,NE,Maradi,no,MFQ,
2125,large_airport,Diori Hamani International Airport,13.4815,2.18361,732,NE,Niamey,yes,NIM,
2126,medium_airport,Tahoua Airport,14.8756999969482,5.26535987854004,1266,NE,Tahoua,no,THZ,
2127,medium_airport,Mano Dayak International Airport,16.9659996032715,8.00010967254639,1657,NE,Agadez,yes,AJY,
2130,medium_airport,Zinder Airport,13.7790002822876,8.98375988006592,1516,NE,Zinder,yes,ZND,
2131,medium_airport,Tabarka 7 Novembre Airport,36.9799995422363,8.87693977355957,230,TN,Tabarka,yes,TBJ,
2132,medium_airport,Monastir Habib Bourguiba International Airport,35.7580986022949,10.7546997070313,9,TN,Monastir,yes,MIR,
2133,large_airport,Tunis Carthage International Airport,36.851001739502,10.2271995544434,22,TN,Tunis,yes,TUN,
2136,medium_airport,Gafsa Ksar International Airport,34.4220008850098,8.82250022888184,1060,TN,Gafsa,yes,GAF,
2137,medium_airport,Gabès Matmata International Airport,33.8768997192383,10.1033000946045,26,TN,Gabès,yes,GAE,
2139,medium_airport,Djerba Zarzis International Airport,33.875,10.7755002975464,19,TN,Djerba,yes,DJE,
2140,medium_airport,El Borma Airport,31.7042999267578,9.25461959838867,827,TN,El Borma,no,EBM,
2141,medium_airport,Sfax Thyna International Airport,34.7179985046387,10.6909999847412,85,TN,Sfax,yes,SFA,
2142,medium_airport,Tozeur Nefta International Airport,33.9397010803223,8.11056041717529,287,TN,Tozeur,yes,TOE,
2143,medium_airport,Niamtougou International Airport,9.76733016967773,1.09124994277954,1515,TG,Niamtougou,no,LRL,
2144,medium_airport,Lomé–Tokoin International Airport,6.16561,1.25451,72,TG,Lomé,yes,LFW,
2152,medium_airport,Antwerp International Airport (Deurne),51.1894,4.46028,39,BE,Antwerp,yes,ANR,
2155,large_airport,Brussels Airport,50.9014015198,4.48443984985,184,BE,Brussels,yes,BRU,
2157,medium_airport,Brussels South Charleroi Airport,50.459202,4.45382,614,BE,Brussels,yes,CRL,
2161,medium_airport,Wevelgem Airport,50.8172,3.20472,55,BE,Wevelgem,no,KJK,
2162,large_airport,Liège Airport,50.6374015808106,5.44322013854981,659,BE,Liège,yes,LGG,
2163,medium_airport,Ostend-Bruges International Airport,51.1988983154,2.8622200489,13,BE,Ostend,yes,OST,
2184,medium_airport,Altenburg-Nobitz Airport,50.981945,12.506389,640,DE,Altenburg,no,AOC,
2187,medium_airport,Heringsdorf Airport,53.8787002563,14.152299881,93,DE,Heringsdorf,yes,HDF,
2199,medium_airport,"Magdeburg ""City"" Airport",52.073612,11.626389,259,DE,Magdeburg,no,ZMG,
2743,medium_airport,Neubrandenburg Airport,53.6022,13.306,228,DE,Neubrandenburg,no,FNB,
301881,large_airport,Berlin Brandenburg Airport,52.351389,13.493889,157,DE,Berlin,yes,BER,
2210,large_airport,Dresden Airport,51.1328010559082,13.7672004699707,755,DE,Dresden,yes,DRS,
2211,medium_airport,Erfurt Airport,50.9798011779785,10.9581003189087,1036,DE,Erfurt,yes,ERF,
2212,large_airport,Frankfurt am Main Airport,50.033333,8.570556,364,DE,Frankfurt am Main,yes,FRA,
2213,large_airport,Münster Osnabrück Airport,52.134601593,7.68483018875,160,DE,Münster,yes,FMO,
2214,large_airport,Hamburg Helmut Schmidt Airport,53.630402,9.98823,53,DE,Hamburg,yes,HAM,
2216,large_airport,Cologne Bonn Airport,50.8658981323,7.1427397728,302,DE,Cologne,yes,CGN,
2217,large_airport,Düsseldorf Airport,51.289501,6.76678,147,DE,Düsseldorf,yes,DUS,
2218,large_airport,Munich Airport,48.353802,11.7861,1487,DE,Munich,yes,MUC,
2219,large_airport,Nuremberg Airport,49.498699,11.078056,1046,DE,Nuremberg,yes,NUE,
2220,large_airport,Leipzig/Halle Airport,51.423889,12.236389,465,DE,Leipzig,yes,LEJ,
2221,medium_airport,Saarbrücken Airport,49.2145996094,7.10950994492,1058,DE,Saarbrücken,yes,SCN,
2222,large_airport,Stuttgart Airport,48.6898994446,9.22196006775,1276,DE,Stuttgart,yes,STR,
2224,large_airport,Hannover Airport,52.461101532,9.68507957458,183,DE,Hannover,yes,HAJ,
2225,large_airport,Bremen Airport,53.0475006104,8.78666973114,14,DE,Bremen,yes,BRE,
2227,medium_airport,Frankfurt-Hahn Airport,49.9487,7.26389,1649,DE,Frankfurt am Main,yes,HHN,
2228,medium_airport,Mannheim-City Airport,49.473057,8.514167,308,DE,Mannheim,yes,MHG,
2232,medium_airport,Eisenach-Kindel Airport,50.991604,10.47973,1112,DE,Eisenach,no,EIB,
2233,medium_airport,Siegerland Airport,50.7076988220215,8.08296966552734,1966,DE,,no,SGE,
2234,medium_airport,Hamburg-Finkenwerder Airport,53.5352783203125,9.83555603027344,23,DE,Hamburg,no,XFW,
2235,medium_airport,Kiel-Holtenau Airport,54.379444,10.145278,102,DE,Kiel,no,KEL,
2236,medium_airport,Lübeck Blankensee Airport,53.8054008484,10.7192001343,53,DE,Lübeck,yes,LBC,
2237,medium_airport,Memmingen Allgau Airport,47.9888000488,10.2395000458,2077,DE,Memmingen,yes,FMM,
2243,medium_airport,Mönchengladbach Airport,51.230278,6.504444,125,DE,Mönchengladbach,no,MGL,
2244,medium_airport,Paderborn Lippstadt Airport,51.6141014099,8.61631965637,699,DE,Paderborn,yes,PAD,
2246,medium_airport,Weeze Airport,51.6024017334,6.14216995239,106,DE,Weeze,yes,NRN,
2247,large_airport,Dortmund Airport,51.5182991028,7.61223983765,425,DE,Dortmund,yes,DTM,
2248,medium_airport,Augsburg Airport,48.425278,10.931667,1516,DE,Augsburg,no,AGB,
2252,medium_airport,Oberpfaffenhofen Airport,48.081402,11.2831,1947,DE,Weßling,no,OBF,
2256,medium_airport,Friedrichshafen Airport,47.6712989807,9.51148986816,1367,DE,Friedrichshafen,yes,FDH,
2258,medium_airport,Schwerin Parchim Airport,53.426998,11.7834,166,DE,,no,SZW,
2261,medium_airport,Bayreuth Airport,49.985001,11.64,1601,DE,Bayreuth,no,BYU,
2263,medium_airport,Hof-Plauen Airport,50.288612,11.856389,1959,DE,Hof,no,HOQ,
2270,large_airport,Karlsruhe Baden-Baden Airport,48.7793998718,8.08049964905,408,DE,Baden-Baden,yes,FKB,
2276,medium_airport,Lahr Airport,48.3693008423,7.82772016525,511,DE,,no,LHA,
2284,medium_airport,Braunschweig-Wolfsburg Airport,52.319199,10.5561,295,DE,Braunschweig,no,BWE,
2285,medium_airport,Kassel-Calden Airport,51.417273,9.384967,820,DE,Kassel,yes,KSF,
2296,medium_airport,Westerland Sylt Airport,54.9132003784,8.34047031403,51,DE,Westerland,yes,GWT,
2298,medium_airport,Kärdla Airport,58.9907989501953,22.8306999206543,18,EE,Kärdla,yes,KDL,
2299,medium_airport,Kuressaare Airport,58.2299003601074,22.50950050354,14,EE,Kuressaare,yes,URE,
2300,medium_airport,Pärnu Airport,58.4189987182617,24.4727993011475,47,EE,Pärnu,yes,EPU,
2301,large_airport,Lennart Meri Tallinn Airport,59.4132995605,24.8327999115,131,EE,Tallinn,yes,TLL,
2302,medium_airport,Tartu Airport,58.307499,26.690399,220,EE,Tartu,yes,TAY,
2303,medium_airport,Enontekio Airport,68.362602233887,23.424299240112,1005,FI,Enontekio,yes,ENF,
2305,medium_airport,Halli Airport,61.856039,24.786686,479,FI,Jämsä,no,KEV,
2306,medium_airport,Helsinki Malmi Airport,60.254601,25.042801,57,FI,Helsinki,no,HEM,
2307,large_airport,Helsinki Vantaa Airport,60.3172,24.963301,179,FI,Helsinki,yes,HEL,
2313,medium_airport,Kitee Airport,62.1661,30.073601,364,FI,Kitee,no,KTQ,
2314,medium_airport,Ivalo Airport,68.607299804688,27.405300140381,481,FI,Ivalo,yes,IVL,
2315,medium_airport,Joensuu Airport,62.662899,29.6075,398,FI,Joensuu / Liperi,yes,JOE,
2316,medium_airport,Jyväskylä Airport,62.399502,25.678301,459,FI,Jyväskylän Maalaiskunta,yes,JYV,
2317,medium_airport,Kauhava Airfield,63.127102,23.051399,151,FI,Kauhava,no,KAU,
2318,medium_airport,Kemi-Tornio Airport,65.778701782227,24.582099914551,61,FI,Kemi / Tornio,yes,KEM,
2319,medium_airport,Kajaani Airport,64.2855,27.6924,483,FI,Kajaani,yes,KAJ,
2320,medium_airport,Kauhajoki Airfield,62.462502,22.393101,407,FI,,no,KHJ,
2321,medium_airport,Kokkola-Pietarsaari Airport,63.721199,23.143101,84,FI,Kokkola / Kruunupyy,yes,KOK,
2324,medium_airport,Kuusamo Airport,65.987602,29.239401,866,FI,Kuusamo,yes,KAO,
2325,medium_airport,Kittilä Airport,67.700996398926,24.846799850464,644,FI,Kittilä,yes,KTT,
2326,medium_airport,Kuopio Airport,63.007099,27.7978,323,FI,Kuopio / Siilinjärvi,yes,KUO,
2329,medium_airport,Lappeenranta Airport,61.044601,28.144743,349,FI,Lappeenranta,yes,LPP,
2330,medium_airport,Mariehamn Airport,60.1222,19.898199,17,FI,Mariehamn,yes,MHQ,
2332,medium_airport,Mikkeli Airport,61.6866,27.201799,329,FI,Mikkeli,no,MIK,
2334,medium_airport,Oulu Airport,64.930099,25.354601,47,FI,Oulu / Oulunsalo,yes,OUL,
2336,medium_airport,Pori Airport,61.4617,21.799999,44,FI,Pori,yes,POR,
2341,medium_airport,Rovaniemi Airport,66.564796447754,25.830400466919,642,FI,Rovaniemi,yes,RVN,
2343,medium_airport,Savonlinna Airport,61.9431,28.945101,311,FI,Savonlinna,yes,SVL,
2345,medium_airport,Seinäjoki Airport,62.692101,22.8323,302,FI,Seinäjoki / Ilmajoki,yes,SJY,
2346,medium_airport,Sodankyla Airport,67.3949966431,26.6191005707,602,FI,Sodankyla,no,SOT,
2347,medium_airport,Tampere-Pirkkala Airport,61.414101,23.604401,390,FI,Tampere / Pirkkala,yes,TMP,
2349,medium_airport,Turku Airport,60.514099,22.2628,161,FI,Turku,yes,TKU,
2350,medium_airport,Utti Air Base,60.8964,26.9384,339,FI,Utti / Valkeala,no,UTI,
2351,medium_airport,Vaasa Airport,63.050701,21.762199,19,FI,Vaasa,yes,VAA,
2352,medium_airport,Varkaus Airport,62.171101,27.868601,286,FI,Varkaus / Joroinen,yes,VRK,
2353,medium_airport,Ylivieska Airfield,64.054722,24.725278,252,FI,,no,YLI,
2385,large_airport,Belfast International Airport,54.6575012207,-6.21582984924,268,GB,Belfast,yes,BFS,
2386,medium_airport,Enniskillen/St Angelo Airport,54.398899,-7.65167,155,GB,Enniskillen,no,ENK,
2387,medium_airport,George Best Belfast City Airport,54.618099,-5.8725,15,GB,Belfast,yes,BHD,
2388,medium_airport,City of Derry Airport,55.0428009033203,-7.16110992431641,22,GB,Derry,yes,LDY,
2389,large_airport,Birmingham International Airport,52.4538993835,-1.74802994728,327,GB,Birmingham,yes,BHX,
2390,medium_airport,Coventry Airport,52.3697013855,-1.47971999645,267,GB,Coventry,no,CVT,
2392,medium_airport,Gloucestershire Airport,51.8941993713379,-2.16722011566162,101,GB,Staverton,no,GLO,
2393,medium_airport,Nottingham Airport,52.919998,-1.07917,138,GB,Nottingham,no,NQT,
2398,large_airport,Manchester Airport,53.349375,-2.279521,257,GB,Manchester,yes,MAN,
2401,large_airport,Robin Hood Doncaster Sheffield Airport,53.4805378105,-1.01065635681,55,GB,Doncaster,yes,DSA,
2410,medium_airport,RNAS Yeovilton,51.0093994140625,-2.63881993293762,75,GB,Yeovil,no,YEO,
2411,medium_airport,Campbeltown Airport,55.437198638916,-5.6863899230957,42,GB,Campbeltown,yes,CAL,
29126,medium_airport,Eday Airport,59.190601348877,-2.77221989631653,10,GB,Eday,yes,EOI,
2414,medium_airport,Haverfordwest Airport,51.8330993652344,-4.96111011505127,159,GB,Haverfordwest,no,HAW,
2415,large_airport,Cardiff International Airport,51.3967018127441,-3.34332990646362,220,GB,Cardiff,yes,CWL,
2416,medium_airport,Swansea Airport,51.6053009033203,-4.06783008575439,299,GB,Swansea,no,SWS,
2417,large_airport,Bristol Airport,51.382702,-2.71909,622,GB,Bristol,yes,BRS,
2418,large_airport,Liverpool John Lennon Airport,53.3335990905762,-2.8497200012207,80,GB,Liverpool,yes,LPL,
2419,large_airport,London Luton Airport,51.874698638916,-0.368333011865616,526,GB,London,yes,LTN,
2421,medium_airport,Bournemouth Airport,50.779999,-1.8425,38,GB,Bournemouth,yes,BOH,
2422,large_airport,Southampton Airport,50.9502983093262,-1.35679996013641,44,GB,Southampton,yes,SOU,
2404,medium_airport,Newquay Cornwall Airport,50.440601348877,-4.99540996551514,390,GB,Newquay,yes,NQY,
2425,medium_airport,Guernsey Airport,49.435001373291,-2.60196995735168,336,GG,Saint Peter Port,yes,GCI,
2426,medium_airport,Jersey Airport,49.2079010009766,-2.1955099105835,277,JE,Saint Helier,yes,JER,
2427,medium_airport,Shoreham Airport,50.835602,-0.297222,7,GB,Brighton,no,ESH,
2428,medium_airport,London Biggin Hill Airport,51.3307991028,0.0324999988079,598,GB,London,no,BQH,
2429,large_airport,London Gatwick Airport,51.148102,-0.190278,202,GB,London,yes,LGW,
2430,medium_airport,London City Airport,51.505299,0.055278,19,GB,London,yes,LCY,
2431,medium_airport,Farnborough Airport,51.2757987976,-0.776332974434,238,GB,Farnborough,no,FAB,
2433,medium_airport,Blackbushe Airport,51.3238983154297,-0.847500026226044,325,GB,Yateley,no,BBS,
2434,large_airport,London Heathrow Airport,51.4706,-0.461941,83,GB,London,yes,LHR,
2435,medium_airport,Southend Airport,51.5714,0.695556,49,GB,London,yes,SEN,
2436,medium_airport,Lydd Airport,50.9561,0.939167,13,GB,"Lydd, Ashford",no,LYX,
2439,medium_airport,Carlisle Airport,54.9375,-2.80917000770569,190,GB,Carlisle,no,CAX,
2441,medium_airport,Blackpool International Airport,53.7717018127441,-3.02860999107361,34,GB,Blackpool,yes,BLK,
2442,medium_airport,Humberside Airport,53.5744018554688,-0.350832998752594,121,GB,Grimsby,yes,HUY,
2443,medium_airport,Barrow Walney Island Airport,54.1286111,-3.2675,173,GB,Barrow-in-Furness,no,BWF,
2444,large_airport,Leeds Bradford Airport,53.8658981323242,-1.66057002544403,681,GB,Leeds,yes,LBA,
2445,medium_airport,Warton Aerodrome,53.745098,-2.88306,55,GB,Warton,no,WRT,
2446,medium_airport,Hawarden Airport,53.178101,-2.97778,45,GB,Hawarden,no,CEG,
2447,medium_airport,Isle of Man Airport,54.0833015441895,-4.6238899230957,52,IM,Castletown,yes,IOM,
2448,large_airport,Newcastle Airport,55.0374984741211,-1.69166994094849,266,GB,Newcastle,yes,NCL,
2449,medium_airport,Durham Tees Valley Airport,54.5092010498047,-1.42940998077393,120,GB,Durham,yes,MME,
2450,large_airport,East Midlands Airport,52.8311004639,-1.32806003094,306,GB,Nottingham,yes,EMA,
2454,medium_airport,Anglesey Airport,53.2481002808,-4.53533983231,37,GB,Angelsey,yes,VLY,
2456,medium_airport,Kirkwall Airport,58.9578018188477,-2.90499997138977,50,GB,Orkney Islands,yes,KOI,
2457,medium_airport,Sumburgh Airport,59.8788986206055,-1.29556000232697,20,GB,Lerwick,yes,LSI,
2458,medium_airport,Wick Airport,58.4589004516602,-3.09306001663208,126,GB,Wick,yes,WIC,
2459,medium_airport,Aberdeen Dyce Airport,57.2019,-2.19778,215,GB,Aberdeen,yes,ABZ,
2460,medium_airport,Inverness Airport,57.5424995422363,-4.0475001335144,31,GB,Inverness,yes,INV,
2461,large_airport,Glasgow International Airport,55.871899,-4.43306,26,GB,Glasgow,yes,GLA,
2462,large_airport,Edinburgh Airport,55.9500007629395,-3.37249994277954,135,GB,Edinburgh,yes,EDI,
2463,medium_airport,Islay Airport,55.6819000244141,-6.25666999816895,56,GB,Port Ellen,yes,ILY,
2464,medium_airport,Glasgow Prestwick Airport,55.5093994140625,-4.586669921875,65,GB,Glasgow,yes,PIK,
2465,medium_airport,Benbecula Airport,57.4810981750488,-7.36278009414673,19,GB,Balivanich,yes,BEB,
2466,medium_airport,Scatsta Airport,60.4328002929688,-1.29611003398895,81,GB,Shetland Islands,no,SCS,
2467,medium_airport,Dundee Airport,56.4524993896484,-3.02583003044128,17,GB,Dundee,yes,DND,
2468,medium_airport,Stornoway Airport,58.2155990600586,-6.33111000061035,26,GB,Stornoway,yes,SYY,
29173,medium_airport,Barra Airport,57.0228,-7.44306,5,GB,Eoligarry,yes,BRR,
2469,medium_airport,Tiree Airport,56.4991989135742,-6.86917018890381,38,GB,Balemartine,yes,TRE,
2470,medium_airport,RAF Kinloss,57.6493988037,-3.56064009666,22,GB,Kinloss,no,FSS,
2471,medium_airport,RAF Leuchars,56.3728981018066,-2.86843991279602,38,GB,St. Andrews,no,ADX,
2472,medium_airport,RAF Lossiemouth,57.7052001953125,-3.33916997909546,42,GB,Lossiemouth,no,LMO,
2473,medium_airport,Cambridge Airport,52.205002,0.175,47,GB,Cambridge,no,CBG,
2475,medium_airport,Norwich International Airport,52.6758,1.28278,117,GB,Norwich,yes,NWI,
2476,large_airport,London Stansted Airport,51.8849983215,0.234999999404,348,GB,London,yes,STN,
2481,large_airport,Exeter International Airport,50.7344017028809,-3.41388988494873,102,GB,Exeter,yes,EXT,
2483,medium_airport,Oxford (Kidlington) Airport,51.8368988037,-1.32000005245,270,GB,Kidlington,no,OXF,
2486,medium_airport,RAF Benson,51.6164016724,-1.09582996368,226,GB,Benson,no,BEX,
2487,medium_airport,RAF Lakenheath,52.409302,0.561,32,GB,Lakenheath,no,LKZ,
2488,medium_airport,RAF Mildenhall,52.3619,0.486406,33,GB,Mildenhall,no,MHZ,
2491,medium_airport,RAF Wyton,52.3572006226,-0.107832998037,135,GB,St. Ives,no,QUY,
2492,medium_airport,RAF Fairford,51.682201,-1.79003,286,GB,Fairford,no,FFD,
2493,medium_airport,RAF Brize Norton,51.75,-1.58362,288,GB,Brize Norton,no,BZZ,
2494,medium_airport,RAF Odiham,51.2341003418,-0.94282501936,405,GB,Odiham,no,ODH,
2496,medium_airport,RAF Northolt,51.5530014038,-0.418166995049,124,GB,London,no,NHT,
2497,medium_airport,RAF Coningsby,53.0929985046,-0.166014000773,25,GB,Coningsby,no,QCY,
2501,medium_airport,RAF Honington,52.342601776123,0.772939026355743,174,GB,Thetford,no,BEQ,
2503,medium_airport,RAF Scampton,53.307800293,-0.550832986832,202,GB,Scampton,no,SQZ,
2505,medium_airport,RAF Linton-On-Ouse,54.0489006042,-1.2527500391,53,GB,Linton-On-Ouse,no,HRT,
2506,medium_airport,RAF Waddington,53.1661987305,-0.523810982704,231,GB,Waddington,no,WTN,
2511,medium_airport,RAF Marham,52.648395,0.550692,75,GB,Marham,no,KNF,
2512,medium_airport,Mount Pleasant Airport,-51.8227996826172,-58.4472007751465,244,FK,Mount Pleasant,yes,MPN,
2513,large_airport,Amsterdam Airport Schiphol,52.308601,4.76389,-11,NL,Amsterdam,yes,AMS,
2515,medium_airport,Maastricht Aachen Airport,50.911701,5.77014,375,NL,Maastricht,yes,MST,
2518,large_airport,Eindhoven Airport,51.4500999451,5.37452983856,74,NL,Eindhoven,yes,EIN,
2519,medium_airport,Eelde Airport,53.1197013855,6.57944011688,17,NL,Groningen,yes,GRQ,
2520,medium_airport,Gilze Rijen Air Base,51.5674018859863,4.93182992935181,49,NL,Breda,no,GLZ,
2521,medium_airport,De Kooy Airport,52.9234008789063,4.78062009811401,3,NL,Den Helder,no,DHR,
2522,medium_airport,Lelystad Airport,52.4603,5.52722,-13,NL,Lelystad,no,LEY,
2523,medium_airport,Leeuwarden Air Base,53.2285995483398,5.76056003570557,3,NL,Leeuwarden,no,LWR,
2524,medium_airport,Rotterdam The Hague Airport,51.956902,4.43722,-15,NL,Rotterdam,yes,RTM,
2526,medium_airport,Twente Airport,52.275833,6.889167,114,NL,Enschede,no,ENS,
347108,medium_airport,Ezhou Huahu Airport,30.345833,115.047222,86,CN,Ezhou,no,EHU,
2529,medium_airport,Woensdrecht Air Base,51.4491,4.34203,63,NL,Bergen Op Zoom,no,WOE,
2530,large_airport,Cork Airport,51.8413009643555,-8.49110984802246,502,IE,Cork,yes,ORK,
2531,medium_airport,Galway Airport,53.3002014160156,-8.94159030914307,81,IE,Galway,yes,GWY,
2532,medium_airport,Donegal Airport,55.0442008972168,-8.34099960327148,30,IE,Donegal,yes,CFN,
2533,large_airport,Dublin Airport,53.421299,-6.27007,242,IE,Dublin,yes,DUB,
2534,medium_airport,Ireland West Knock Airport,53.910301,-8.81849,665,IE,Charlestown,yes,NOC,
2535,medium_airport,Kerry Airport,52.1809005737305,-9.52377986907959,112,IE,Killarney,yes,KIR,
2537,large_airport,Shannon Airport,52.702,-8.92482,46,IE,Shannon,yes,SNN,
2538,medium_airport,Sligo Airport,54.280200958252,-8.5992097854614,11,IE,Sligo,no,SXL,
2539,medium_airport,Waterford Airport,52.187198638916,-7.08695983886719,119,IE,Waterford,yes,WAT,
2540,medium_airport,Aarhus Airport,56.2999992371,10.6190004349,82,DK,Aarhus,yes,AAR,
2541,large_airport,Billund Airport,55.7402992249,9.15178012848,247,DK,Billund,yes,BLL,
2542,large_airport,Copenhagen Kastrup Airport,55.617900848389,12.656000137329,17,DK,Copenhagen,yes,CPH,
2543,medium_airport,Esbjerg Airport,55.525902,8.5534,97,DK,Esbjerg,yes,EBJ,
2546,medium_airport,Karup Airport,56.2975006103516,9.12462997436523,170,DK,Karup,yes,KRP,
2548,medium_airport,Lolland Falster Maribo Airport,54.699299,11.4401,16,DK,Lolland Falster / Maribo,no,MRW,
2549,medium_airport,Odense Airport,55.4766998291016,10.3309001922607,56,DK,Odense,yes,ODE,
2551,medium_airport,Copenhagen Roskilde Airport,55.5856018066406,12.1314001083374,146,DK,Copenhagen,no,RKE,
2552,medium_airport,Bornholm Airport,55.0633010864258,14.7595996856689,52,DK,Rønne,yes,RNN,
2553,medium_airport,Sønderborg Airport,54.9644012451172,9.79172992706299,24,DK,Sønderborg,yes,SGD,
2554,medium_airport,Sindal Airport,57.503502,10.2294,92,DK,Sindal,yes,CNL,
2555,medium_airport,Skrydstrup Air Base,55.221048,9.26702,141,DK,Vojens,no,SKS,
2556,medium_airport,Skive Airport,56.5502014160156,9.17298030853272,74,DK,Skive,no,SQW,
2557,medium_airport,Thisted Airport,57.0688018798828,8.70522022247314,23,DK,Thisted,no,TED,
2559,medium_airport,Vágar Airport,62.063599,-7.27722,280,FO,Vágar,yes,FAE,
2561,medium_airport,Stauning Airport,55.9901008605957,8.35391044616699,17,DK,Skjern / Ringkøbing,no,STA,
2562,large_airport,Aalborg Airport,57.0927589138,9.84924316406,10,DK,Aalborg,yes,AAL,
2563,large_airport,Luxembourg-Findel International Airport,49.6233333,6.2044444,1234,LU,Luxembourg,yes,LUX,
2564,medium_airport,Ålesund Airport,62.5625,6.11969995498657,69,NO,Ålesund,yes,AES,
2565,medium_airport,Andøya Airport,69.292503356934,16.144199371338,43,NO,Andenes,yes,ANX,
2566,medium_airport,Alta Airport,69.976097106934,23.371700286865,9,NO,Alta,yes,ALF,
2568,medium_airport,Brønnøysund Airport,65.461097717285,12.217499732971,25,NO,Brønnøy,yes,BNN,
2569,large_airport,Bodø Airport,67.2692031860352,14.3653001785278,42,NO,Bodø,yes,BOO,
2570,large_airport,Bergen Airport Flesland,60.29339981,5.218140125,170,NO,Bergen,yes,BGO,
2571,medium_airport,Båtsfjord Airport,70.60050201416,29.691400527954,490,NO,Båtsfjord,yes,BJF,
29255,medium_airport,Berlevåg Airport,70.871399,29.034201,42,NO,Berlevåg,yes,BVG,
2572,medium_airport,Kristiansand Airport,58.204201,8.08537,57,NO,Kjevik,yes,KRS,
2574,medium_airport,Bardufoss Airport,69.055801391602,18.540399551392,252,NO,Målselv,yes,BDU,
2575,medium_airport,"Harstad/Narvik Airport, Evenes",68.491302490234,16.678100585938,84,NO,Evenes,yes,EVE,
2576,medium_airport,"Fagernes Airport, Leirin",61.015598,9.28806,2697,NO,Fagernes,no,VDB,
2577,medium_airport,Florø Airport,61.583599090576,5.0247201919556,37,NO,Florø,yes,FRO,
2578,large_airport,Oslo Gardermoen Airport,60.193901062012,11.100399971008,681,NO,Oslo,yes,OSL,
2579,medium_airport,Haugesund Airport,59.345299,5.20836,86,NO,Karmøy,yes,HAU,
28115,medium_airport,Hammerfest Airport,70.679702758789,23.668600082397,266,NO,Hammerfest,yes,HFT,
29261,medium_airport,Valan Airport,71.009696960449,25.983600616455,44,NO,Honningsvåg,yes,HVG,
2581,medium_airport,Kristiansund Airport (Kvernberget),63.111801147461,7.824520111084,204,NO,Kvernberget,yes,KSU,
2583,medium_airport,Kirkenes Airport (Høybuktmoen),69.725799560547,29.891300201416,283,NO,Kirkenes,yes,KKN,
29264,medium_airport,Leknes Airport,68.152496337891,13.609399795532,78,NO,Leknes,yes,LKN,
29265,medium_airport,Mehamn Airport,71.02970123291,27.826700210571,39,NO,Mehamn,yes,MEH,
2585,medium_airport,Molde Airport,62.744701385498,7.2624998092651,10,NO,Årø,yes,MOL,
2586,medium_airport,Mosjøen Airport (Kjærstad),65.783997,13.2149,237,NO,Mosjøen,yes,MJF,
2587,medium_airport,Banak Airport,70.068801879883,24.973499298096,25,NO,Lakselv,yes,LKL,
2588,medium_airport,Notodden Airport,59.565701,9.21222,63,NO,Notodden,yes,NTB,
2589,medium_airport,Ørland Airport,63.6988983154297,9.60400009155273,28,NO,Ørland,yes,OLA,
28114,medium_airport,"Ørsta-Volda Airport, Hovden",62.180000305176,6.0741000175476,243,NO,Ørsta,yes,HOV,
29277,medium_airport,"Mo i Rana Airport, Røssvoll",66.363899230957,14.301400184631,229,NO,Mo i Rana,yes,MQN,
29278,medium_airport,"Rørvik Airport, Ryum",64.838302612305,11.14610004425,14,NO,Rørvik,yes,RVK,
2591,medium_airport,Røros Airport,62.578399658203,11.342300415039,2054,NO,Røros,yes,RRS,
2592,medium_airport,"Moss Airport, Rygge",59.378817,10.785439,174,NO,Oslo,no,RYG,
2593,medium_airport,"Svalbard Airport, Longyear",78.246101379395,15.465600013733,88,NO,Longyearbyen,yes,LYR,
29281,medium_airport,Svolvær Helle Airport,68.243301391602,14.669199943542,27,NO,Svolvær,yes,SVJ,
29282,medium_airport,Stokmarknes Skagen Airport,68.578826904297,15.033416748047,11,NO,Hadsel,yes,SKN,
2594,medium_airport,Skien Airport,59.185001373291,9.56694030761719,463,NO,Geiteryggen,no,SKE,
2595,medium_airport,Stord Airport,59.7919006347656,5.34084987640381,160,NO,Leirvik,yes,SRP,
2596,medium_airport,Sørkjosen Airport,69.786796569824,20.959400177002,16,NO,Sørkjosen,yes,SOJ,
2597,medium_airport,"Vardø Airport, Svartnes",70.355400085449,31.044900894165,42,NO,Vardø,yes,VAW,
2598,medium_airport,Sandnessjøen Airport (Stokka),65.956802368164,12.468899726868,56,NO,Alstahaug,yes,SSJ,
2599,large_airport,Tromsø Airport,69.6832962036133,18.9188995361328,31,NO,Tromsø,yes,TOS,
2600,medium_airport,"Sandefjord Airport, Torp",59.1866989136,10.258600235,286,NO,Torp,yes,TRF,
2601,large_airport,Trondheim Airport Værnes,63.4578018,10.9239998,56,NO,Trondheim,yes,TRD,
29284,medium_airport,Vadsø Airport,70.065299987793,29.844699859619,127,NO,Vadsø,yes,VDS,
336112,medium_airport,Yan'an Nanniwan Airport,36.479413,109.464083,,CN,Yan'an,yes,ENY,ENY
2602,large_airport,Stavanger Airport Sola,58.876701354,5.6377801895,29,NO,Stavanger,yes,SVG,
31012,medium_airport,Biała Podlaska Airfield,52.00078,23.1325278,485,PL,Biała Podlaska,no,BXP,
2604,large_airport,Bydgoszcz Ignacy Jan Paderewski Airport,53.096802,17.977699,235,PL,Bydgoszcz,yes,BZG,
2608,large_airport,Gdańsk Lech Wałęsa Airport,54.3776016235352,18.4661998748779,489,PL,Gdańsk,yes,GDN,
2609,large_airport,Kraków John Paul II International Airport,50.077702,19.7848,791,PL,Kraków,yes,KRK,
2613,large_airport,Katowice International Airport,50.4743,19.08,995,PL,Katowice,yes,KTW,
2616,medium_airport,Łódź Władysław Reymont Airport,51.7219009399,19.3980998993,604,PL,Łódź,yes,LCJ,
2622,medium_airport,Modlin Airport,52.451099,20.6518,341,PL,Warsaw,yes,WMI,
2625,large_airport,Poznań-Ławica Airport,52.4210014343,16.8262996674,308,PL,Poznań,yes,POZ,
2628,medium_airport,Radom Airport,51.3891983032,21.213300705,610,PL,Radom,yes,RDO,
2629,medium_airport,Rzeszów-Jasionka Airport,50.110001,22.018999,693,PL,Rzeszów,yes,RZE,
2630,large_airport,"Szczecin-Goleniów ""Solidarność"" Airport",53.584702,14.9022,154,PL,Goleniow,yes,SZZ,
2635,medium_airport,Olsztyn-Mazury Airport,53.481899,20.9377,463,PL,Olsztyn,yes,SZY,
2637,large_airport,Warsaw Chopin Airport,52.1656990051,20.9671001434,362,PL,Warsaw,yes,WAW,
2638,large_airport,Copernicus Wrocław Airport,51.1026992798,16.885799408,404,PL,Wrocław,yes,WRO,
2639,medium_airport,Zielona Góra-Babimost Airport,52.1385002136,15.7986001968,194,PL,Babimost,yes,IEG,
2646,medium_airport,Ronneby Airport,56.266701,15.265,191,SE,Ronneby,yes,RNB,
2648,large_airport,Gothenburg-Landvetter Airport,57.662799835205,12.279800415039,506,SE,Gothenburg,yes,GOT,
2649,medium_airport,Jönköping Airport,57.7575988769531,14.068699836731,741,SE,Jönköping,yes,JKG,
2652,medium_airport,Gothenburg City Airport,57.7747,11.8704,59,SE,Gothenburg,no,GSE,
2653,medium_airport,Skövde Airport,58.4564018249512,13.9727001190186,324,SE,Skövde,no,KVB,
2654,medium_airport,Trollhättan-Vänersborg Airport,58.3180999755859,12.3450002670288,137,SE,Trollhättan,yes,THN,
2658,medium_airport,Karlskoga Airport,59.3459014892578,14.4959001541138,400,SE,,no,KSK,
2659,medium_airport,Mora Airport,60.957901,14.5114,634,SE,Mora,yes,MXX,
2660,medium_airport,Stockholm Skavsta Airport,58.788601,16.912201,140,SE,Stockholm,yes,NYO,
2664,medium_airport,Kristianstad Airport,55.9216995239258,14.0854997634888,76,SE,Kristianstad,yes,KID,
2668,medium_airport,Kalmar Airport,56.685501,16.2876,17,SE,Kalmar,yes,KLR,
2669,large_airport,Malmö Sturup Airport,55.536305364,13.3761978149,236,SE,Malmö,yes,MMX,
2670,medium_airport,Halmstad Airport,56.6911010742188,12.8201999664307,101,SE,Halmstad,yes,HAD,
2672,medium_airport,Växjö Kronoberg Airport,56.9291000366211,14.7279996871948,610,SE,Växjö,yes,VXO,
2675,medium_airport,Sveg Airport,62.047798,14.4229,1178,SE,Sveg,yes,EVG,
2676,medium_airport,Gällivare Airport,67.1324005126953,20.8145999908447,1027,SE,Gällivare,yes,GEV,
2679,medium_airport,Kramfors-Sollefteå Höga Kusten Airport,63.048599,17.7689,34,SE,Nyland,yes,KRF,
2680,medium_airport,Lycksele Airport,64.548302,18.7162,705,SE,Lycksele,yes,LYC,
2682,medium_airport,Sundsvall-Härnösand Airport,62.5280990600586,17.4438991546631,16,SE,Sundsvall/ Härnösand,yes,SDL,
2683,medium_airport,Örnsköldsvik Airport,63.4082984924316,18.9899997711182,354,SE,Örnsköldsvik,yes,OER,
2685,medium_airport,Kiruna Airport,67.821998596191,20.336799621582,1508,SE,Kiruna,yes,KRN,
2687,medium_airport,Skellefteå Airport,64.6248016357422,21.0769004821777,157,SE,Skellefteå,yes,SFT,
2689,medium_airport,Umeå Airport,63.791801452637,20.282800674438,24,SE,Umeå,yes,UME,
2690,medium_airport,Vilhelmina South Lapland Airport,64.579102,16.833599,1140,SE,Vilhelmina,yes,VHM,
2691,medium_airport,Arvidsjaur Airport,65.5903015136719,19.2819004058838,1245,SE,Arvidsjaur,yes,AJR,
2692,medium_airport,Söderhamn Airport,61.2615013122559,17.099100112915,88,SE,Söderhamn,no,SOO,
29358,medium_airport,Åre Östersund Airport,63.194400787354,14.50030040741,1233,SE,Östersund,yes,OSD,
2693,medium_airport,Örebro Airport,59.2237014770508,15.0380001068115,188,SE,Örebro,yes,ORB,
2694,medium_airport,Hagfors Airport,60.0201,13.5789,474,SE,Råda,yes,HFS,
2695,medium_airport,Karlstad Airport,59.4446983337,13.3374004364,352,SE,Karlstad,yes,KSD,
2696,medium_airport,Stockholm Västerås Airport,59.5894012451172,16.6336002349854,21,SE,Stockholm / Västerås,yes,VST,
2697,large_airport,Luleå Airport,65.543800354004,22.121999740601,65,SE,Luleå,yes,LLA,
2701,large_airport,Stockholm-Arlanda Airport,59.651901245117,17.918600082397,137,SE,Stockholm,yes,ARN,
2702,medium_airport,Stockholm-Bromma Airport,59.3544006347656,17.9416999816895,47,SE,Stockholm,yes,BMA,
2703,medium_airport,Dala Airport,60.422001,15.5152,503,SE,Borlange,yes,BLE,
2705,medium_airport,Gävle Sandviken Airport,60.5932998657227,16.9514007568359,224,SE,Gävle / Sandviken,no,GVX,
2706,medium_airport,Linköping City Airport,58.4062004089,15.6805000305,172,SE,Linköping,yes,LPI,
2707,medium_airport,Norrköping Airport,58.5862998962402,16.2506008148193,32,SE,Norrköping,yes,NRK,
2708,medium_airport,Torsby Airport,60.1576,12.9913,393,SE,Torsby,yes,TYF,
2709,medium_airport,Eskilstuna Airport,59.3511009216309,16.7084007263184,139,SE,Eskilstuna,no,EKT,
2710,medium_airport,Visby Airport,57.662799835205,18.346200942993,164,SE,Visby,yes,VBY,
2711,medium_airport,Ängelholm-Helsingborg Airport,56.2961006164551,12.8471002578735,68,SE,Ängelholm,yes,AGH,
2713,medium_airport,Storuman Airport,64.960899,17.6966,915,SE,Storuman,yes,SQO,
2715,medium_airport,Pajala Airport,67.2455978393555,23.0688991546631,542,SE,,no,PJA,
2716,medium_airport,Hemavan Airport,65.806099,15.0828,1503,SE,Hemavan,yes,HMV,
2717,medium_airport,Spangdahlem Air Base,49.9726982117,6.69250011444,1197,DE,Trier,no,SPM,
2718,medium_airport,Ramstein Air Base,49.436901,7.60028,776,DE,Ramstein,no,RMS,
2724,medium_airport,Fritzlar Army Airfield,51.1146,9.286,1345,DE,Fritzlar,no,FRZ,
2734,medium_airport,Nordholz Naval Airbase,53.7677001953,8.65849971771,74,DE,Cuxhaven,no,FCN,
2736,medium_airport,Geilenkirchen Air Base,50.9608,6.04242,296,DE,,no,GKE,
2739,medium_airport,Rostock-Laage Airport,53.9182014465,12.2783002853,138,DE,Rostock,yes,RLG,
2741,medium_airport,Schleswig Air Base,54.459301,9.51633,70,DE,Jagel,no,WBG,
2747,medium_airport,Wiesbaden Army Airfield,50.0498008728027,8.32540035247803,461,DE,Wiesbaden,no,WIE,
2753,medium_airport,Ingolstadt Manching Airport,48.7156982421875,11.5340003967285,1202,DE,Manching,no,IGS,
44006,medium_airport,Daugavpils Intrenational Airport,55.9447212219,26.6650009155,398,LV,Daugavpils,no,DGP,
2757,medium_airport,Liepāja International Airport,56.5175018310547,21.0969009399414,16,LV,Liepāja,yes,LPX,
2758,large_airport,Riga International Airport,56.9235992431641,23.9710998535156,36,LV,Riga,yes,RIX,
2759,medium_airport,Ventspils International Airport,57.35779953,21.5442008972,19,LV,Ventspils,yes,VNT,
2760,medium_airport,Kaunas International Airport,54.9639015197754,24.0848007202148,256,LT,Kaunas,yes,KUN,
2762,medium_airport,Palanga International Airport,55.973201751709,21.093900680542,33,LT,Palanga,yes,PLQ,
2763,medium_airport,Panevėžys Air Base,55.7294006347656,24.4608001708984,197,LT,Panevėžys,no,PNV,
2764,medium_airport,Šiauliai International Airport,55.8939018249512,23.3950004577637,443,LT,Šiauliai,no,SQQ,
2766,large_airport,Vilnius International Airport,54.634102,25.285801,648,LT,Vilnius,yes,VNO,
2767,medium_airport,Alexander Bay Airport,-28.575001,16.5333,98,ZA,Alexander Bay,no,ALJ,
2768,medium_airport,Aggeneys Airport,-29.2817993164062,18.8138999938965,2648,ZA,Aggeneys,no,AGZ,
2771,medium_airport,Bisho Airport,-32.8970985413,27.2791004181,1950,ZA,Bisho,no,BIY,
2772,medium_airport,Bram Fischer International Airport,-29.092699,26.302401,4457,ZA,Bloemfontain,yes,BFN,
2775,large_airport,Cape Town International Airport,-33.9648017883,18.6016998291,151,ZA,Cape Town,yes,CPT,
2779,medium_airport,Ben Schoeman Airport,-33.0355987549,27.8258991241,435,ZA,East London,yes,ELS,
2781,medium_airport,Ficksburg Sentraoes Airport,-28.8230991363525,27.908899307251,5315,ZA,Ficksburg,no,FCB,
2782,medium_airport,Grand Central Airport,-25.9862995148,28.1401004791,5325,ZA,Midrand,no,GCJ,
2783,large_airport,George Airport,-34.0056,22.378902,648,ZA,George,yes,GRJ,
2784,medium_airport,Rand Airport,-26.2425,28.151199,5483,ZA,Johannesburg,no,QRA,
2789,medium_airport,Harrismith Airport,-28.2350997924805,29.1061992645264,5585,ZA,Harrismith,no,HRS,
2793,medium_airport,P C Pelser Airport,-26.8710994720459,26.7180004119873,4444,ZA,Klerksdorp,no,KXE,
2794,medium_airport,Kimberley Airport,-28.8027992249,24.7651996613,3950,ZA,Kimberley,yes,KIM,
2795,medium_airport,Kruger Mpumalanga International Airport,-25.3831996918,31.1056003571,2829,ZA,Mpumalanga,yes,MQP,
2798,medium_airport,Johan Pienaar Airport,-27.4566993713379,23.4113998413086,4382,ZA,Kuruman,no,KMH,
2799,medium_airport,Kleinsee Airport,-29.6884002686,17.0939998627,270,ZA,Kleinsee,no,KLZ,
2800,medium_airport,Lanseria Airport,-25.9384994507,27.9260997772,4517,ZA,Johannesburg,yes,HLA,
2801,medium_airport,Lime Acres Finsch Mine Airport,-28.3600997924805,23.4391002655029,4900,ZA,Lime Acres,no,LMR,
300795,large_airport,King Shaka International Airport,-29.6144444444,31.1197222222,295,ZA,Durban,yes,DUR,
2805,medium_airport,Langebaanweg Airport,-32.9688987732,18.1602993011,108,ZA,Langebaanweg,no,SDB,
2806,medium_airport,Ladysmith Airport,-28.5816993713,29.7497005463,3548,ZA,Ladysmith,no,LAY,
2808,medium_airport,Malamala Airport,-24.8180999755859,31.544599533081,1124,ZA,Malamala,yes,AAM,
2809,medium_airport,Margate Airport,-30.8574008942,30.343000412,495,ZA,Margate,yes,MGH,
2812,medium_airport,Mmabatho International Airport,-25.7984008789,25.5480003357,4181,ZA,Mafeking,yes,MBD,
2813,medium_airport,Riverside Airport,-25.4300003052,31.5767002106,1024,ZA,Malelane,no,LLE,
2815,medium_airport,Mkuze Airport,-27.6261005401611,32.0443000793457,400,ZA,Mkuze,no,MZQ,
2816,medium_airport,Newcastle Airport,-27.7705993652,29.9769001007,4074,ZA,Newcastle,no,NCS,
2819,medium_airport,Oudtshoorn Airport,-33.6069984436,22.188999176,1063,ZA,Oudtshoorn,no,OUH,FAOH
31055,large_airport,OR Tambo International Airport,-26.1392,28.246,5558,ZA,Johannesburg,yes,JNB,
2820,medium_airport,Port Elizabeth International Airport,-33.984901,25.6173,226,ZA,Port Elizabeth,yes,PLZ,
2821,medium_airport,Plettenberg Bay Airport,-34.08816,23.328723,465,ZA,Plettenberg Bay,yes,PBZ,
2822,medium_airport,Hendrik Van Eck Airport,-23.9372005463,31.1553993225,1432,ZA,Phalaborwa,yes,PHW,
2824,medium_airport,Port St Johns Airport,-31.60612,29.52175,1227,ZA,Port St Johns,no,JOH,
2825,medium_airport,Pietermaritzburg Airport,-29.6490001678,30.3987007141,2423,ZA,Pietermaritzburg,yes,PZB,
2827,medium_airport,Polokwane International Airport,-23.845269,29.458615,4076,ZA,Polokwane,yes,PTG,
2828,medium_airport,Potchefstroom Airport,-26.670999527,27.0818996429,4520,ZA,Potchefstroom,no,PCF,
2830,medium_airport,Queenstown Airport,-31.9202003479004,26.8822002410889,3637,ZA,Queenstown,no,UTW,
2831,medium_airport,Richards Bay Airport,-28.7409992218,32.0920982361,109,ZA,Richards Bay,yes,RCB,
2833,medium_airport,Robertson Airport,-33.812198638916,19.9027996063232,640,ZA,Robertson,no,ROD,
2834,medium_airport,Springbok Airport,-29.6893005371094,17.9395999908447,2690,ZA,Springbok,no,SBU,
2835,medium_airport,Secunda Airport,-26.52409935,29.1700992584,5250,ZA,Secunda,no,ZEC,
2839,medium_airport,Sishen Airport,-27.6485996246,22.9993000031,3848,ZA,Sishen,no,SIS,
2841,medium_airport,Skukuza Airport,-24.960899353,31.5886993408,1020,ZA,Skukuza,no,SZK,
2845,medium_airport,Tzaneen Airport,-23.8243999481,30.3292999268,1914,ZA,Tzaneen,no,LTA,
2846,medium_airport,Prince Mangosuthu Buthelezi Airport,-28.3206005096,31.4165000916,1720,ZA,Ulundi,no,ULD,
2847,medium_airport,Pierre Van Ryneveld Airport,-28.39909935,21.2602005005,2782,ZA,Upington,yes,UTN,
2848,medium_airport,K. D. Matanzima Airport,-31.5463631849,28.6733551025,2400,ZA,Mthatha,yes,UTT,
2849,medium_airport,Vryburg Airport,-26.9824008942,24.7287998199,3920,ZA,Vyrburg,no,VRU,
2850,medium_airport,Virginia Airport,-29.7705993652344,31.0583992004395,20,ZA,Durban,no,VIR,
2852,medium_airport,Vredendal Airport,-31.6410007476807,18.5447998046875,330,ZA,Vredendal,no,VRE,
2854,medium_airport,Wonderboom Airport,-25.6539,28.224199,4095,ZA,Pretoria,no,PRY,
2856,medium_airport,Waterkloof Air Force Base,-25.8299999237,28.2224998474,4940,ZA,Pretoria,no,WKF,
2860,medium_airport,Francistown Airport,-21.1595993041992,27.4745006561279,3283,BW,Francistown,yes,FRW,
2861,medium_airport,Jwaneng Airport,-24.602301,24.691,3900,BW,Jwaneng,yes,JWA,
2862,medium_airport,Kasane Airport,-17.8328990936279,25.1623992919922,3289,BW,Kasane,yes,BBK,
2863,medium_airport,Maun Airport,-19.9726009368896,23.4311008453369,3093,BW,Maun,yes,MUB,
2864,large_airport,Sir Seretse Khama International Airport,-24.555201,25.9182,3299,BW,Gaborone,yes,GBE,
2865,medium_airport,Sua Pan Airport,-20.5534,26.115801,2985,BW,Sowa,no,SXN,
2866,medium_airport,Selebi Phikwe Airport,-22.0583,27.8288,2925,BW,Selebi Phikwe,yes,PKW,
2868,medium_airport,Maya-Maya Airport,-4.25169992446899,15.2530002593994,1048,CG,Brazzaville,yes,BZV,
323021,medium_airport,Oyo Ollombo Airport,-1.226666,15.91,1073,CG,Oyo,no,OLL,
2869,medium_airport,Owando Airport,-0.531350016593933,15.9500999450684,1214,CG,Owando,no,FTX,
2870,medium_airport,Ouesso Airport,1.61599004269,16.0379009247,1158,CG,,no,OUE,
30920,medium_airport,Ngot Nzoungou Airport,-4.20635,12.6599,1079,CG,Dolisie,yes,DIS,
2871,medium_airport,Antonio Agostinho-Neto International Airport,-4.81603,11.8866,55,CG,Pointe Noire,yes,PNR,
2872,medium_airport,Matsapha Airport,-26.528999,31.307501,2075,SZ,Manzini,no,MTS,
308033,large_airport,King Mswati III International Airport,-26.358611,31.716944,1092,SZ,Mpaka,yes,SHO,
2873,medium_airport,Bangui M'Poko International Airport,4.39847993850708,18.5188007354736,1208,CF,Bangui,yes,BGF,
2874,medium_airport,Berbérati Airport,4.22158002853394,15.7863998413086,1929,CF,Berbérati,no,BBT,
2875,medium_airport,Bata Airport,1.90547,9.80568,13,GQ,Bata,yes,BSG,
2876,medium_airport,Malabo Airport,3.75527000427246,8.70872020721436,76,GQ,Malabo,yes,SSG,
2877,medium_airport,RAF Ascension Island,-7.9696,-14.3937,278,SH,Cat Hill,yes,ASI,
2878,large_airport,Sir Seewoosagur Ramgoolam International Airport,-20.430201,57.683601,186,MU,Plaine Magnein,yes,MRU,
2879,medium_airport,Sir Charles Gaetan Duval Airport,-19.7577,63.361,95,MU,Port Mathurin,yes,RRG,
2880,medium_airport,Diego Garcia Naval Support Facility,-7.31327,72.411102,9,IO,Diego Garcia,no,NKW,
2881,medium_airport,Tiko Airport,4.08919000626,9.3605298996,151,CM,Tiko,no,TKC,
2882,medium_airport,Douala International Airport,4.0060801506,9.71947956085,33,CM,Douala,yes,DLA,
2883,medium_airport,Salak Airport,10.4513998031616,14.257399559021,1390,CM,Maroua,yes,MVR,
2884,medium_airport,Foumban Nkounja Airport,5.63691997528076,10.7508001327515,3963,CM,Foumban,no,FOM,
2885,medium_airport,N'Gaoundéré Airport,7.35700988769531,13.5592002868652,3655,CM,N'Gaoundéré,yes,NGE,
2886,medium_airport,Garoua International Airport,9.33588981628418,13.3701000213623,794,CM,Garoua,yes,GOU,
2887,medium_airport,Bafoussam Airport,5.53692007065,10.3545999527,4347,CM,Bafoussam,no,BFX,
2888,medium_airport,Bamenda Airport,6.03923988342285,10.1225996017456,4065,CM,Bamenda,no,BPC,
2889,medium_airport,Yaoundé Airport,3.83604001998901,11.5235004425049,2464,CM,Yaoundé,yes,YAO,
2890,medium_airport,Yaoundé Nsimalen International Airport,3.72255992889404,11.5532999038696,2278,CM,Yaoundé,yes,NSI,
2891,medium_airport,Kasompe Airport,-12.572799682617,27.893899917603,4636,ZM,Chingola,no,CGJ,
2893,medium_airport,Harry Mwanga Nkumbula International Airport,-17.8218,25.822701,3302,ZM,Livingstone,yes,LVI,
2894,large_airport,Kenneth Kaunda International Airport,-15.3308,28.4526,3779,ZM,Lusaka,yes,LUN,
2895,medium_airport,Mfuwe Airport,-13.2588996887207,31.9365997314453,1853,ZM,Mfuwe,yes,MFU,
2896,medium_airport,Mongu Airport,-15.2545003890991,23.1623001098633,3488,ZM,Mongu,no,MNR,
2897,medium_airport,Simon Mwansa Kapwepwe International Airport,-12.998100280762,28.66489982605,4167,ZM,Ndola,yes,NLA,
2898,medium_airport,Southdowns Airport,-12.9005002975464,28.1499004364014,4145,ZM,Kitwe,no,KIW,
2901,medium_airport,Prince Said Ibrahim International Airport,-11.5337,43.2719,93,KM,Moroni,yes,HAH,
2902,medium_airport,Mohéli Bandar Es Eslam Airport,-12.2981,43.766399,46,KM,Fomboni,yes,NWA,
2903,medium_airport,Ouani Airport,-12.1316995620728,44.4303016662598,62,KM,Ouani,yes,AJN,
2904,medium_airport,Dzaoudzi Pamandzi International Airport,-12.8046998977661,45.2811012268066,23,YT,Dzaoudzi,yes,DZA,
2905,large_airport,Roland Garros Airport,-20.8871,55.5103,66,RE,St Denis,yes,RUN,
2906,medium_airport,Pierrefonds Airport,-21.3208999633789,55.4249992370606,59,RE,St Pierre,yes,ZSE,
2908,large_airport,Ivato Airport,-18.7969,47.478802,4198,MG,Antananarivo,yes,TNR,
2909,medium_airport,Miandrivazo Airport,-19.562799,45.450802,203,MG,Miandrivazo,yes,ZVA,
2910,medium_airport,Sainte Marie Airport,-17.093901,49.8158,7,MG,Vohilava,yes,SMS,
2911,medium_airport,Toamasina Ambalamanasy Airport,-18.109501,49.392502,22,MG,Toamasina,yes,TMM,
2912,medium_airport,Morondava Airport,-20.2847,44.3176,30,MG,Morondava,yes,MOQ,
2913,medium_airport,Arrachart Airport,-12.3494,49.291698,374,MG,Antisiranana,yes,DIE,
2914,medium_airport,Mananara Nord Airport,-16.1639003753662,49.7737998962402,9,MG,Mananara Nord,yes,WMR,
2915,medium_airport,Andapa Airport,-14.6517000198364,49.6206016540527,1552,MG,,no,ZWA,
2917,medium_airport,Antsirabe Airport,-14.9994,50.320202,20,MG,Antsirabe,yes,ANM,
2918,medium_airport,Analalava Airport,-14.6297,47.763802,345,MG,Analalava,yes,HVA,
2919,medium_airport,Amborovy Airport,-15.666842,46.351233,87,MG,Mahajanga,yes,MJN,
2920,medium_airport,Fascene Airport,-13.3121004105,48.3148002625,36,MG,Nosy Be,yes,NOS,
2921,medium_airport,Besalampy Airport,-16.74453,44.482484,125,MG,Besalampy,yes,BPY,
2922,medium_airport,Maroantsetra Airport,-15.437742,49.689081,9,MG,Maroantsetra,yes,WMN,
2923,medium_airport,Sambava Airport,-14.2786,50.174702,20,MG,Sambava,yes,SVB,
2924,medium_airport,Vohemar Airport,-13.3758,50.0028,19,MG,Vohemar,yes,VOH,
2925,medium_airport,Ambalabe Airport,-14.8987998962402,47.9939002990723,92,MG,Antsohihy,yes,WAI,
2927,medium_airport,Tôlanaro Airport,-25.038099,46.9561,29,MG,Tôlanaro,yes,FTU,
2928,medium_airport,Fianarantsoa Airport,-21.441601,47.111698,3658,MG,Fianarantsoa,yes,WFI,
2930,medium_airport,Manakara Airport,-22.119699,48.021702,33,MG,Manakara,yes,WVK,
2931,medium_airport,Mananjary Airport,-21.201799,48.358299,20,MG,Mananjary,yes,MNJ,
2932,medium_airport,Morombe Airport,-21.753837,43.374753,16,MG,Morombe,yes,MXM,
2933,medium_airport,Toliara Airport,-23.3834,43.7285,29,MG,Toliara,yes,TLE,
2934,medium_airport,Mbanza Congo Airport,-6.26989984512329,14.2469997406006,1860,AO,Mbanza Congo,yes,SSY,
2935,medium_airport,Benguela 17th of September Airport,-12.609,13.4037,118,AO,Benguela,no,BUG,
2936,medium_airport,Cabinda Airport,-5.59699010848999,12.1884002685547,66,AO,Cabinda,yes,CAB,
30813,medium_airport,Catumbela Airport,-12.4792,13.4869,23,AO,Catumbela,yes,CBT,
2937,medium_airport,Dundo Airport,-7.40088987350464,20.8185005187988,2451,AO,Chitato,yes,DUE,
2938,medium_airport,Ngjiva Pereira Airport,-17.0435009003,15.6837997437,3566,AO,Ngiva,yes,VPE,
2939,medium_airport,Nova Lisboa Airport,-12.8088998794556,15.7604999542236,5587,AO,Huambo,yes,NOV,
2940,medium_airport,Kuito Airport,-12.404600143433,16.947399139404,5618,AO,Kuito,no,SVP,
2942,large_airport,Quatro de Fevereiro Airport,-8.85837,13.2312,243,AO,Luanda,yes,LAD,
2944,medium_airport,Malanje Airport,-9.52509021759033,16.3124008178711,3868,AO,Malanje,yes,MEG,
2945,medium_airport,Menongue Airport,-14.657600402832,17.7198009490967,4469,AO,Menongue,yes,SPP,
2946,medium_airport,Welwitschia Mirabilis International Airport,-15.2612,12.1468,210,AO,Moçâmedes,yes,MSZ,
2947,medium_airport,Negage Airport,-7.75450992584229,15.2876996994019,4105,AO,Negage,yes,GXG,
2948,medium_airport,Porto Amboim Airport,-10.7220001220703,13.7655000686646,16,AO,Port Amboim,no,PBN,
2949,medium_airport,Saurimo Airport,-9.68906974792481,20.4319000244141,3584,AO,Saurimo,no,VHC,
2950,medium_airport,Soyo Airport,-6.14108991622925,12.3718004226685,15,AO,Soyo,yes,SZA,
2951,medium_airport,Sumbe Airport,-11.1679000854492,13.8474998474121,36,AO,Sumbe,no,NDD,
2952,medium_airport,Lubango Airport,-14.9246997833252,13.5749998092651,5778,AO,Lubango,yes,SDD,
2953,medium_airport,Luena Airport,-11.7680997848511,19.8976993560791,4360,AO,Luena,no,LUO,
2954,medium_airport,Uige Airport,-7.60306978225708,15.0277996063232,2720,AO,Uige,no,UGO,
2955,medium_airport,Xangongo Airport,-16.7553997039795,14.9652996063232,3635,AO,Xangongo,no,XGN,
2957,medium_airport,Koulamoutou Mabimbi Airport,-1.1846100091934,12.441300392151,1070,GA,Koulamoutou,yes,KOU,
2958,medium_airport,Mouilla Ville Airport,-1.84513998031616,11.0566997528076,295,GA,Mouila,yes,MJL,
2959,medium_airport,Oyem Airport,1.54311001300812,11.5813999176025,2158,GA,Oyem,yes,OYE,
2960,medium_airport,Okondja Airport,-0.665214002132416,13.6731004714966,1325,GA,Okondja,no,OKN,
2961,medium_airport,Lambarene Airport,-0.704388976097107,10.2456998825073,82,GA,Lambarene,no,LBQ,
2962,medium_airport,Bitam Airport,2.07563996315002,11.493200302124,1969,GA,Bitam,no,BMM,
2963,medium_airport,Port Gentil Airport,-0.711739003658295,8.75438022613525,13,GA,Port Gentil,yes,POG,
2964,medium_airport,Omboue Hospital Airport,-1.57473,9.26269,33,GA,Omboue,no,OMB,
2965,medium_airport,Makokou Airport,0.579210996627808,12.8908996582031,1726,GA,Makokou,yes,MKU,
2966,medium_airport,Libreville Leon M'ba International Airport,0.458600014448,9.4122800827,39,GA,Libreville,yes,LBV,
2967,medium_airport,M'Vengue El Hadj Omar Bongo Ondimba International Airport,-1.65615999698639,13.4379997253418,1450,GA,Franceville,yes,MVB,
2968,medium_airport,Principe Airport,1.66294,7.41174,591,ST,São Tomé & Príncipe,yes,PCP,
2969,medium_airport,São Tomé International Airport,0.378174990415573,6.71215009689331,33,ST,São Tomé,yes,TMS,
2970,medium_airport,Beira Airport,-19.7964000701904,34.907600402832,33,MZ,Beira,yes,BEW,
2971,medium_airport,Chimoio Airport,-19.1513004302979,33.4290008544922,2287,MZ,Chimoio,yes,VPY,
2972,medium_airport,Inhambane Airport,-23.8764,35.408501,30,MZ,Inhambane,yes,INH,
2973,medium_airport,Lichinga Airport,-13.274,35.2663,4505,MZ,Lichinga,yes,VXC,
2975,large_airport,Maputo Airport,-25.920799,32.572601,145,MZ,Maputo,yes,MPM,
2976,medium_airport,Mueda Airport,-11.6729001998901,39.5630989074707,2789,MZ,Mueda,no,MUD,
2977,medium_airport,Mocímboa da Praia Airport,-11.3618001937866,40.3549003601074,89,MZ,Mocímboa da Praia,no,MZB,
2980,medium_airport,Nampula Airport,-15.1056003570557,39.2817993164062,1444,MZ,Nampula,yes,APL,
2981,medium_airport,Pemba Airport,-12.9917621612549,40.5240135192871,331,MZ,Pemba / Porto Amelia,yes,POL,
2982,medium_airport,Quelimane Airport,-17.8554992675781,36.8690986633301,36,MZ,Quelimane,yes,UEL,
2984,medium_airport,Chingozi Airport,-16.1047992706299,33.6402015686035,525,MZ,Tete,yes,TET,
2986,medium_airport,Vilankulo Airport,-22.0184001922607,35.3133010864258,46,MZ,Vilanculo,yes,VNX,
2993,large_airport,Seychelles International Airport,-4.67434,55.521801,10,SC,Mahe Island,yes,SEZ,
2994,medium_airport,Praslin Airport,-4.31929,55.691399,10,SC,Grand Anse,yes,PRI,
2996,medium_airport,Abeche Airport,13.847,20.844299,1788,TD,Abeche,yes,AEH,
2997,medium_airport,Moundou Airport,8.62441,16.0714,1407,TD,Moundou,yes,MQQ,
2998,large_airport,N'Djamena International Airport,12.1337,15.034,968,TD,N'Djamena,yes,NDJ,
2999,medium_airport,Faya Largeau Airport,17.9171009063721,19.1110992431641,771,TD,,no,FYT,
3000,medium_airport,Joshua Mqabuko Nkomo International Airport,-20.017401,28.617901,4359,ZW,Bulawayo,yes,BUQ,
3003,medium_airport,Buffalo Range Airport,-21.008101,31.5786,1421,ZW,Chiredzi,no,BFO,
3004,medium_airport,Victoria Falls International Airport,-18.0958995819092,25.8390007019043,3490,ZW,Victoria Falls,yes,VFA,
3005,large_airport,Robert Gabriel Mugabe International Airport,-17.931801,31.0928,4887,ZW,Harare,yes,HRE,
3006,medium_airport,Kariba International Airport,-16.5198001861572,28.8850002288818,1706,ZW,Kariba,no,KAB,
3010,medium_airport,Masvingo International Airport,-20.0552997589111,30.8591003417969,3595,ZW,Masvingo,no,MVZ,
3013,medium_airport,Thornhill Air Base,-19.4363994598389,29.8619003295898,4680,ZW,Gweru,no,GWE,
3014,medium_airport,Hwange National Park Airport,-18.6298999786377,27.0209999084473,3543,ZW,Hwange,no,HWN,
3015,medium_airport,Chileka International Airport,-15.6791000366211,34.9739990234375,2555,MW,Blantyre,yes,BLZ,
30602,medium_airport,Dwangwa Airport,-12.5183,34.131901,1605,MW,Dwangwa,no,DWA,
3016,medium_airport,Karonga Airport,-9.95357036590576,33.8930015563965,1765,MW,Karonga,no,KGJ,
3018,medium_airport,Lilongwe International Airport,-13.7894001007,33.78099823,4035,MW,Lilongwe,yes,LLW,
30603,medium_airport,Mangochi Airport,-14.4829998016357,35.2669982910156,1580,MW,Mangochi,no,MAI,
3020,medium_airport,Mzuzu Airport,-11.4447002410889,34.0117988586426,4115,MW,Mzuzu,yes,ZZU,
3022,medium_airport,Moshoeshoe I International Airport,-29.4622993469238,27.5524997711182,5348,LS,Maseru,yes,MSU,
3024,medium_airport,Arandis Airport,-22.4622001647949,14.9799995422363,1905,,Arandis,no,ADI,
3026,medium_airport,Grootfontein Airport,-19.6021995544434,18.1226997375488,4636,,Grootfontein,no,GFY,
3028,medium_airport,Keetmanshoop Airport,-26.5398006439209,18.111400604248,3506,,Keetmanshoop,no,KMP,
3029,medium_airport,Luderitz Airport,-26.6874008178711,15.2428998947144,457,,Luderitz,yes,LUD,
3031,medium_airport,Ondangwa Airport,-17.878201,15.9526,3599,,Ondangwa,yes,OND,
3032,medium_airport,Oranjemund Airport,-28.5847,16.446699,14,,Oranjemund,yes,OMD,
3035,medium_airport,Rundu Airport,-17.956499099731,19.719400405884,3627,,Rundu,yes,NDU,
3036,medium_airport,Tsumeb Airport,-19.26189994812,17.732500076294,4353,,Tsumeb,no,TSB,
3037,medium_airport,Walvis Bay Airport,-22.9799,14.6453,299,,Walvis Bay,yes,WVB,
3038,medium_airport,Eros Airport,-22.6121997833252,17.0804004669189,5575,,Windhoek,yes,ERS,
3039,large_airport,Hosea Kutako International Airport,-22.4799,17.4709,5640,,Windhoek,yes,WDH,
3040,large_airport,Ndjili International Airport,-4.38575,15.4446,1027,CD,Kinshasa,yes,FIH,
3041,medium_airport,Ndolo Airport,-4.32666015625,15.327500343323,915,CD,N'dolo,no,NLO,
3044,medium_airport,Bandundu Airport,-3.31132,17.381701,1063,CD,Bandundu,yes,FDU,
3045,medium_airport,Kikwit Airport,-5.03577,18.785601,1572,CD,Kikwit,yes,KKW,
3046,medium_airport,Mbandaka Airport,0.0226000007242,18.2887001038,1040,CD,Mbandaka,yes,MDK,
3047,medium_airport,Gbadolite Airport,4.25321,20.9753,1509,CD,Gbadolite,yes,BDT,
3048,medium_airport,Gemena Airport,3.23536992073,19.7712993622,1378,CD,Gemena,yes,GMA,
3050,medium_airport,Lisala Airport,2.17066,21.496901,1509,CD,,no,LIQ,
3052,medium_airport,Bangoka International Airport,0.481638997793,25.3379993439,1417,CD,Kisangani,yes,FKI,
3053,medium_airport,Matari Airport,2.82761001586914,27.588300704956,2438,CD,,yes,IRP,
3054,medium_airport,Bunia Airport,1.56571996212006,30.2208003997803,4045,CD,,yes,BUX,
3055,medium_airport,Buta Zega Airport,2.81835007667542,24.7936992645264,1378,CD,,no,BZU,
3056,medium_airport,Bukavu Kavumu Airport,-2.30897998809814,28.8087997436523,5643,CD,,no,BKY,
3057,medium_airport,Goma International Airport,-1.67080998420715,29.2385005950928,5089,CD,Goma,yes,GOM,
3058,medium_airport,Kindu Airport,-2.91917991638,25.9153995514,1630,CD,Kindu,yes,KND,
3059,medium_airport,Lubumbashi International Airport,-11.5913000107,27.5308990479,4295,CD,Lubumbashi,yes,FBM,
3060,medium_airport,Kolwezi Airport,-10.7658996582031,25.5056991577148,5007,CD,,yes,KWZ,
3061,medium_airport,Kalemie Airport,-5.87555980682373,29.25,2569,CD,,yes,FMI,
3062,medium_airport,Kamina Base Airport,-8.6420202255249,25.2528991699219,3543,CD,,no,KMN,
3063,medium_airport,Kananga Airport,-5.90005016327,22.4692001343,2139,CD,Kananga,yes,KGA,
3064,medium_airport,Mbuji Mayi Airport,-6.12124013901,23.5690002441,2221,CD,Mbuji Mayi,yes,MJM,
3066,large_airport,Modibo Keita International Airport,12.5335,-7.94994,1247,ML,Bamako,yes,BKO,
3067,medium_airport,Gao Airport,16.2483997344971,-0.0054560001008212,870,ML,,yes,GAQ,
3068,medium_airport,Kayes Dag Dag Airport,14.4812002182007,-11.4043998718262,164,ML,,yes,KYS,
3069,medium_airport,Mopti Airport,14.5128002167,-4.07955980301,906,ML,,yes,MZI,
3071,medium_airport,Timbuktu Airport,16.7304992675781,-3.00758004188538,863,ML,Timbuktu,yes,TOM,
35156,medium_airport,Outer Skerries Airport,60.4252,-0.75,76,GB,Grunay Island,yes,OUK,
3076,medium_airport,Banjul International Airport,13.3380002975464,-16.6522006988525,95,GM,Banjul,yes,BJL,
3077,large_airport,Fuerteventura Airport,28.4527,-13.8638,85,ES,Fuerteventura Island,yes,FUE,
3079,medium_airport,Hierro Airport,27.8148002624512,-17.8871002197266,103,ES,El Hierro Island,yes,VDE,
3080,medium_airport,La Palma Airport,28.626499,-17.7556,107,ES,"Sta Cruz de la Palma, La Palma Island",yes,SPC,
3081,large_airport,Gran Canaria Airport,27.9319000244141,-15.3865995407104,78,ES,Gran Canaria Island,yes,LPA,
3082,large_airport,Lanzarote Airport,28.945499,-13.6052,46,ES,Lanzarote Island,yes,ACE,
3083,large_airport,Tenerife South Airport,28.0445,-16.5725,209,ES,Tenerife,yes,TFS,
